loopIteration,time,gyroADC[0],gyroADC[1],gyroADC[2]
0,2109160652,11,5,-0
1,2109405984,10,-2,0
2,2109409384,10,-2,-0
3,2109412796,9,-2,-1
4,2109416168,9,-2,-1
5,2109419544,9,-2,-2
6,2109422916,9,-2,-2
7,2109426308,10,-2,-2
8,2109429708,9,-2,-2
9,2109433096,10,-3,-1
10,2109436484,9,-2,-1
11,2109439896,10,-2,-1
12,2109443324,10,-2,-1
13,2109446748,10,-2,-0
14,2109450176,10,-2,0
15,2109453584,10,-2,0
16,2109456984,10,-3,1
17,2109460388,10,-2,2
18,2109463792,10,-3,1
19,2109467192,10,-3,2
20,2109470612,10,-3,2
21,2109474044,10,-3,2
22,2109481980,10,-3,3
23,2109485404,10,-3,2
24,2109488816,10,-3,2
25,2109492216,10,-3,2
26,2109495636,10,-3,2
27,2109499036,10,-3,2
28,2109502436,10,-3,1
29,2109505840,10,-3,1
30,2109509256,10,-3,1
31,2109512680,10,-3,1
32,2109516100,10,-3,0
33,2109519504,10,-3,0
34,2109522924,10,-3,0
35,2109526348,10,-3,0
36,2109529768,10,-3,0
37,2109533176,9,-3,0
38,2109536572,10,-3,-0
39,2109539996,9,-3,-0
40,2109543420,10,-2,-0
41,2109546852,10,-3,0
42,2109550284,10,-2,-0
43,2109553708,10,-2,0
44,2109557124,10,-2,0
45,2109563720,10,-2,1
46,2109567128,10,-2,1
47,2109570516,10,-2,1
48,2109573928,10,-2,1
49,2109577356,10,-2,2
50,2109580768,10,-2,2
51,2109584172,10,-2,2
52,2109587600,10,-2,2
53,2109591008,10,-2,3
54,2109594436,10,-2,3
55,2109597856,10,-2,2
56,2109601272,10,-3,3
57,2109604700,10,-3,2
58,2109608120,10,-2,3
59,2109611544,10,-3,2
60,2109614956,10,-3,2
61,2109618368,10,-3,2
62,2109621764,10,-3,1
63,2109625164,10,-3,1
64,2109628572,10,-2,1
65,2109631968,10,-2,1
66,2109635384,10,-3,1
67,2109638820,10,-2,0
68,2109645352,10,-2,-0
69,2109648772,10,-2,-1
70,2109652188,10,-2,-1
71,2109655596,10,-1,-1
72,2109659016,10,-2,-1
73,2109662420,10,-1,-0
74,2109665828,10,-1,-1
75,2109669252,10,-2,-0
76,2109672672,10,-1,-0
77,2109676100,10,-2,-1
78,2109679528,10,-2,1
79,2109682940,10,-2,0
80,2109686336,10,-2,0
81,2109689748,10,-2,1
82,2109693168,10,-2,1
83,2109696564,10,-2,1
84,2109699964,10,-2,1
85,2109703364,10,-2,1
86,2109706748,10,-2,2
87,2109710164,10,-2,2
88,2109713588,10,-2,2
89,2109716976,10,-2,2
90,2109720376,10,-2,2
91,2109726844,10,-1,1
92,2109730228,10,-1,2
93,2109733616,10,-1,2
94,2109737028,10,-1,2
95,2109740432,10,-1,2
96,2109743820,10,-2,2
97,2109747224,10,-1,2
98,2109750612,10,-2,2
99,2109754024,10,-2,2
100,2109757420,10,-2,2
101,2109760844,10,-2,2
102,2109764264,10,-2,2
103,2109767696,10,-2,1
104,2109771104,10,-2,1
105,2109774528,10,-2,1
106,2109777952,10,-2,1
107,2109781368,10,-2,2
108,2109784792,10,-2,1
109,2109788232,10,-2,2
110,2109791656,10,-3,1
111,2109795056,10,-2,1
112,2109798492,10,-2,1
113,2109801916,10,-2,2
114,2109808420,10,-2,1
115,2109811840,10,-2,1
116,2109815268,10,-2,1
117,2109818696,10,-2,1
118,2109822136,10,-3,1
119,2109825564,10,-2,2
120,2109828976,10,-2,1
121,2109832400,10,-3,1
122,2109835828,10,-3,2
123,2109839248,10,-2,2
124,2109842656,10,-2,2
125,2109846056,10,-2,2
126,2109849468,11,-1,2
127,2109852888,10,-1,2
128,2109856312,10,-1,2
129,2109859736,11,-1,2
130,2109863176,11,-1,2
131,2109866596,10,-1,3
132,2109870032,11,-1,3
133,2109873452,10,-1,3
134,2109876880,10,-1,3
135,2109880308,10,-2,3
136,2109886676,10,-2,3
137,2109890100,10,-2,3
138,2109893520,10,-2,3
139,2109896944,10,-1,2
140,2109900388,10,-2,3
141,2109903816,10,-2,3
142,2109907268,10,-2,3
143,2109910708,10,-2,3
144,2109914148,10,-3,2
145,2109917560,10,-2,3
146,2109920984,10,-2,2
147,2109924428,10,-2,3
148,2109927868,10,-2,3
149,2109931324,10,-3,3
150,2109934760,10,-2,3
151,2109938196,10,-2,2
152,2109941640,10,-2,3
153,2109945080,11,-2,2
154,2109948504,10,-2,2
155,2109951916,10,-2,2
156,2109955332,10,-2,2
157,2109958752,10,-2,2
158,2109965100,10,-2,1
159,2109968536,10,-2,1
160,2109971964,10,-2,1
161,2109975396,10,-2,1
162,2109978824,10,-3,1
163,2109982260,10,-2,1
164,2109985688,10,-2,1
165,2109989124,10,-2,1
166,2109992560,10,-2,1
167,2109995976,10,-2,1
168,2109999404,10,-2,1
169,2110002824,10,-2,0
170,2110006240,10,-1,1
171,2110009648,10,-2,1
172,2110013084,10,-2,1
173,2110016504,10,-2,1
174,2110019940,10,-2,1
175,2110023368,10,-2,1
176,2110026788,10,-2,1
177,2110030188,10,-2,1
178,2110033604,10,-2,1
179,2110037032,10,-2,2
180,2110043576,11,-2,2
181,2110046992,10,-2,1
182,2110050432,10,-2,1
183,2110053844,10,-2,1
184,2110057268,10,-2,2
185,2110060676,10,-2,2
186,2110064100,10,-2,2
187,2110067512,10,-2,2
188,2110070944,10,-2,1
189,2110074364,10,-2,1
190,2110077788,10,-2,2
191,2110081220,11,-2,2
192,2110084632,10,-2,1
193,2110088056,10,-2,1
194,2110091484,10,-3,1
195,2110094912,10,-2,2
196,2110098316,10,-2,2
197,2110101732,10,-2,1
198,2110105136,10,-2,2
199,2110108560,10,-2,2
200,2110111976,10,-3,2
201,2110115384,10,-2,2
202,2110118808,10,-3,2
203,2110125328,10,-2,2
204,2110128736,10,-2,2
205,2110132164,10,-2,2
206,2110135588,10,-2,2
207,2110139008,11,-1,2
208,2110142404,10,-2,2
209,2110145824,10,-1,2
210,2110149228,10,-1,1
211,2110152632,10,-2,2
212,2110156052,10,-2,2
213,2110159468,10,-2,2
214,2110162884,10,-2,2
215,2110166288,10,-2,2
216,2110169712,10,-2,2
217,2110173124,10,-2,2
218,2110176544,10,-2,1
219,2110179948,10,-2,1
220,2110183352,10,-2,1
221,2110186764,10,-2,1
222,2110190176,10,-2,1
223,2110193584,10,-2,1
224,2110197012,10,-2,1
225,2110203484,10,-2,1
226,2110206908,10,-3,1
227,2110210328,10,-2,2
228,2110213752,10,-2,1
229,2110217156,10,-2,1
230,2110220584,10,-2,2
231,2110223984,10,-2,1
232,2110227432,10,-2,1
233,2110230848,10,-2,2
234,2110234248,10,-2,2
235,2110237668,10,-2,2
236,2110241092,10,-2,2
237,2110244492,10,-2,2
238,2110247928,10,-2,2
239,2110251352,10,-2,2
240,2110254760,10,-3,2
241,2110258184,10,-2,1
242,2110261592,10,-2,2
243,2110265004,10,-2,2
244,2110268436,10,-2,1
245,2110271828,10,-2,2
246,2110275236,10,-2,2
247,2110281700,10,-2,2
248,2110285120,10,-2,1
249,2110288528,10,-2,1
250,2110291948,10,-2,2
251,2110295380,10,-2,1
252,2110298784,10,-2,2
253,2110302216,10,-2,1
254,2110305628,10,-2,2
255,2110309036,10,-2,1
256,2110312460,10,-2,2
257,2110315868,10,-2,1
258,2110319256,10,-2,1
259,2110322656,10,-2,1
260,2110326072,10,-2,1
261,2110329484,10,-2,1
262,2110332896,10,-2,1
263,2110336304,11,-2,1
264,2110339704,10,-2,1
265,2110343112,10,-1,2
266,2110346516,10,-2,1
267,2110349920,10,-2,2
268,2110353348,10,-2,2
269,2110359928,10,-2,2
270,2110363348,10,-2,2
271,2110366780,10,-2,2
272,2110370200,10,-2,2
273,2110373620,10,-2,2
274,2110377052,10,-2,2
275,2110380460,10,-2,2
276,2110383872,10,-2,1
277,2110387292,10,-2,1
278,2110390704,10,-2,1
279,2110394116,10,-2,1
280,2110397544,10,-2,1
281,2110400948,10,-2,1
282,2110404364,10,-2,1
283,2110407800,10,-2,1
284,2110411212,10,-2,1
285,2110414628,10,-2,1
286,2110418028,10,-2,1
287,2110421444,10,-2,1
288,2110424868,10,-2,1
289,2110428308,10,-2,2
290,2110431740,10,-2,1
291,2110435156,10,-2,2
292,2110441808,10,-2,1
293,2110445204,10,-2,1
294,2110448616,10,-1,2
295,2110452024,10,-2,1
296,2110455440,10,-2,1
297,2110458852,10,-2,1
298,2110462280,10,-2,2
299,2110465704,11,-2,1
300,2110469132,10,-2,1
301,2110472560,10,-2,1
302,2110475984,10,-2,1
303,2110479428,10,-2,1
304,2110482856,10,-2,0
305,2110486272,10,-2,0
306,2110489704,10,-2,-0
307,2110493144,10,-2,0
308,2110496568,10,-2,0
309,2110500008,10,-2,-0
310,2110503440,10,-2,-0
311,2110506860,10,-2,0
312,2110510300,10,-2,-0
313,2110513728,10,-2,-0
314,2110520108,10,-2,0
315,2110523532,10,-2,0
316,2110526924,10,-2,0
317,2110530336,10,-2,0
318,2110533752,10,-2,1
319,2110537160,10,-2,1
320,2110540564,10,-2,1
321,2110543968,10,-2,1
322,2110547380,10,-2,1
323,2110550784,10,-2,2
324,2110554220,10,-3,1
325,2110557620,10,-2,2
326,2110561032,10,-2,2
327,2110564464,10,-2,3
328,2110567880,10,-2,2
329,2110571292,10,-2,2
330,2110574716,10,-2,3
331,2110578140,10,-2,3
332,2110581560,10,-2,3
333,2110585008,10,-2,3
334,2110588436,10,-2,3
335,2110591868,10,-2,3
336,2110598292,10,-2,3
337,2110601728,10,-2,4
338,2110605168,10,-2,3
339,2110608616,10,-2,3
340,2110612044,11,-2,2
341,2110615468,10,-2,2
342,2110618884,10,-2,2
343,2110622300,10,-2,2
344,2110625716,10,-2,1
345,2110629156,10,-2,1
346,2110632588,10,-2,1
347,2110636044,10,-2,1
348,2110639480,10,-2,-0
349,2110642916,10,-2,0
350,2110646360,10,-2,-0
351,2110649792,10,-2,0
352,2110653236,10,-2,-0
353,2110656688,10,-2,0
354,2110660100,10,-2,-0
355,2110663548,10,-2,0
356,2110666964,10,-2,0
357,2110670360,9,-2,1
358,2110676836,10,-2,1
359,2110680244,10,-2,1
360,2110683640,10,-2,2
361,2110687056,10,-1,2
362,2110690484,10,-2,3
363,2110693892,10,-2,3
364,2110697320,11,-2,3
365,2110700748,10,-2,3
366,2110704188,10,-2,3
367,2110707604,10,-2,3
368,2110711020,10,-2,3
369,2110714448,10,-2,3
370,2110717888,10,-2,3
371,2110721312,10,-2,3
372,2110724740,10,-2,3
373,2110728180,10,-2,3
374,2110731616,10,-2,3
375,2110735056,10,-2,2
376,2110738492,10,-2,2
377,2110741920,10,-2,2
378,2110745336,10,-2,1
379,2110748772,10,-2,1
380,2110755252,10,-2,1
381,2110758672,10,-2,1
382,2110762120,10,-2,0
383,2110765532,10,-2,1
384,2110768964,10,-2,1
385,2110772408,10,-2,0
386,2110775840,10,-2,0
387,2110779272,10,-2,1
388,2110782704,10,-2,0
389,2110786116,10,-2,1
390,2110789520,10,-2,1
391,2110792928,10,-2,1
392,2110796332,10,-2,1
393,2110799732,10,-2,2
394,2110803148,10,-2,2
395,2110806576,10,-2,2
396,2110809996,10,-1,2
397,2110813416,10,-2,3
398,2110816836,10,-2,2
399,2110820264,10,-2,3
400,2110823704,11,-2,3
401,2110827132,10,-2,3
402,2110830564,10,-2,3
403,2110837052,10,-2,3
404,2110840488,10,-3,3
405,2110843932,10,-2,2
406,2110847368,10,-2,2
407,2110850784,10,-2,2
408,2110854228,10,-2,2
409,2110857624,10,-2,2
410,2110861040,10,-2,1
411,2110864460,10,-2,1
412,2110867872,10,-2,1
413,2110871284,10,-2,1
414,2110874728,10,-2,1
415,2110878140,10,-2,1
416,2110881556,10,-2,1
417,2110884996,10,-3,1
418,2110888428,10,-2,0
419,2110891848,10,-2,0
420,2110895264,10,-1,1
421,2110898672,10,-2,1
422,2110902096,10,-2,0
423,2110905528,10,-2,0
424,2110908944,10,-2,0
425,2110915416,10,-2,0
426,2110918812,10,-2,1
427,2110922236,10,-2,1
428,2110925664,10,-2,1
429,2110929092,10,-2,1
430,2110932488,10,-2,1
431,2110935904,10,-2,1
432,2110939328,10,-2,2
433,2110942740,10,-2,1
434,2110946156,10,-2,2
435,2110949572,10,-2,1
436,2110952980,10,-2,2
437,2110956388,10,-1,2
438,2110959800,10,-2,2
439,2110963220,10,-2,2
440,2110966620,11,-2,2
441,2110970048,10,-2,2
442,2110973472,10,-2,2
443,2110976904,10,-2,2
444,2110980332,10,-2,2
445,2110983740,10,-2,2
446,2110987168,10,-3,2
447,2110993668,10,-2,2
448,2110997080,10,-2,2
449,2111000484,10,-2,2
450,2111003896,10,-2,2
451,2111007324,10,-2,2
452,2111010748,10,-2,2
453,2111014180,10,-2,2
454,2111017600,10,-2,2
455,2111021024,10,-2,2
456,2111024436,10,-2,2
457,2111027848,10,-2,2
458,2111031264,10,-2,2
459,2111034680,10,-2,1
460,2111038076,10,-1,2
461,2111041488,10,-2,2
462,2111044912,10,-2,2
463,2111048348,10,-2,2
464,2111051772,10,-2,2
465,2111055184,10,-2,2
466,2111058616,10,-2,2
467,2111062044,10,-2,2
468,2111065456,10,-2,2
469,2111071956,10,-2,2
470,2111075380,11,-2,1
471,2111078804,10,-2,2
472,2111082208,10,-2,2
473,2111085644,10,-2,2
474,2111089052,10,-2,1
475,2111092460,10,-2,1
476,2111095872,10,-2,2
477,2111099284,10,-2,1
478,2111102688,10,-2,1
479,2111106128,10,-2,1
480,2111109548,10,-2,1
481,2111112956,10,-2,1
482,2111116380,10,-2,1
483,2111119788,10,-2,1
484,2111123200,10,-2,1
485,2111126608,10,-2,1
486,2111130020,10,-2,1
487,2111133424,10,-2,1
488,2111136848,10,-2,1
489,2111140248,10,-1,1
490,2111143652,10,-2,1
491,2111147088,10,-2,2
492,2111153520,10,-2,2
493,2111156920,10,-2,2
494,2111160336,10,-2,2
495,2111163732,10,-2,2
496,2111167156,10,-2,2
497,2111170584,10,-2,2
498,2111174008,10,-2,2
499,2111177408,10,-2,1
500,2111180840,10,-2,2
501,2111184256,10,-2,1
502,2111187668,10,-2,2
503,2111191096,10,-2,1
504,2111194508,10,-2,1
505,2111197912,10,-2,1
506,2111201344,10,-2,1
507,2111204748,10,-2,2
508,2111208160,10,-2,1
509,2111211584,10,-2,1
510,2111215008,10,-2,1
511,2111218428,10,-2,1
512,2111221856,10,-2,2
513,2111225264,10,-2,1
514,2111231672,10,-2,2
515,2111235064,10,-2,1
516,2111238480,10,-2,2
517,2111241892,10,-2,2
518,2111245312,10,-2,2
519,2111248728,10,-2,2
520,2111252168,10,-2,2
521,2111255584,10,-2,2
522,2111258992,10,-2,2
523,2111262428,10,-2,2
524,2111265876,10,-2,2
525,2111269312,10,-2,2
526,2111272740,10,-2,2
527,2111276160,10,-2,2
528,2111279560,10,-2,2
529,2111282968,10,-2,2
530,2111286396,10,-2,2
531,2111289804,10,-2,2
532,2111293228,10,-2,2
533,2111296680,10,-2,2
534,2111300096,10,-2,2
535,2111303520,10,-2,2
536,2111310016,10,-2,1
537,2111313432,10,-2,2
538,2111316844,10,-2,1
539,2111320256,10,-2,1
540,2111323656,10,-2,1
541,2111327072,10,-2,1
542,2111330492,10,-2,1
543,2111333904,10,-2,1
544,2111337328,10,-2,1
545,2111340752,10,-2,1
546,2111344168,10,-2,1
547,2111347580,10,-2,2
548,2111350992,10,-3,1
549,2111354412,10,-2,1
550,2111357820,10,-2,1
551,2111361252,10,-2,2
552,2111364688,10,-2,1
553,2111368104,10,-2,2
554,2111371520,10,-1,2
555,2111374916,10,-2,1
556,2111378316,10,-2,1
557,2111381724,10,-2,2
558,2111388288,10,-2,2
559,2111391720,10,-2,1
560,2111395164,10,-2,3
561,2111398588,10,-2,2
562,2111402020,10,-2,2
563,2111405440,10,-2,2
564,2111408852,10,-2,2
565,2111412288,10,-2,2
566,2111415716,10,-2,2
567,2111419148,10,-2,2
568,2111422576,10,-2,2
569,2111425992,10,-2,2
570,2111429404,10,-2,2
571,2111432844,10,-2,2
572,2111436268,10,-2,2
573,2111439688,10,-2,2
574,2111443108,10,-2,2
575,2111446540,10,-2,2
576,2111449948,10,-2,2
577,2111453376,10,-2,2
578,2111456792,10,-2,2
579,2111460204,10,-2,2
580,2111463608,10,-2,2
581,2111470076,10,-2,2
582,2111473500,10,-2,2
583,2111476912,10,-2,2
584,2111480344,10,-2,3
585,2111483776,10,-2,2
586,2111487196,10,-2,2
587,2111490628,10,-2,3
588,2111494064,10,-2,2
589,2111497500,11,-2,3
590,2111500928,10,-2,3
591,2111504352,10,-2,2
592,2111507788,10,-2,2
593,2111511200,10,-2,2
594,2111514628,10,-2,2
595,2111518060,10,-2,2
596,2111521476,10,-2,2
597,2111524916,10,-2,2
598,2111528328,10,-2,2
599,2111531748,10,-2,2
600,2111535184,10,-2,2
601,2111538600,10,-2,2
602,2111542020,10,-2,2
603,2111548504,10,-2,2
604,2111551928,10,-2,2
605,2111555356,10,-2,2
606,2111558800,10,-2,2
607,2111562204,10,-2,2
608,2111565616,10,-2,2
609,2111569040,10,-2,1
610,2111572452,10,-2,2
611,2111575880,10,-2,2
612,2111579304,10,-2,1
613,2111582712,10,-2,1
614,2111586128,10,-2,1
615,2111589552,10,-2,1
616,2111592976,10,-2,1
617,2111596396,10,-2,1
618,2111599820,10,-2,1
619,2111603224,10,-2,1
620,2111606644,10,-2,1
621,2111610060,10,-2,1
622,2111613452,10,-1,1
623,2111616872,10,-2,1
624,2111620300,10,-2,1
625,2111626796,10,-2,1
626,2111630224,10,-2,1
627,2111633636,10,-2,0
628,2111637064,10,-2,0
629,2111640480,10,-2,1
630,2111643900,10,-2,1
631,2111647324,10,-2,1
632,2111650732,10,-2,1
633,2111654164,10,-2,1
634,2111657572,10,-2,1
635,2111660992,10,-1,1
636,2111664416,10,-2,1
637,2111667836,10,-2,1
638,2111671252,10,-2,1
639,2111674684,10,-2,1
640,2111678084,10,-2,1
641,2111681504,10,-2,2
642,2111684916,10,-2,2
643,2111688360,10,-2,2
644,2111691800,10,-2,2
645,2111695228,10,-2,2
646,2111698632,10,-2,2
647,2111705152,10,-2,2
648,2111708580,10,-2,2
649,2111711992,11,-2,2
650,2111715432,11,-2,2
651,2111718856,10,-2,2
652,2111722276,10,-2,2
653,2111725712,10,-2,3
654,2111729120,10,-2,2
655,2111732536,11,-2,3
656,2111735972,10,-2,3
657,2111739392,10,-2,2
658,2111742808,10,-2,2
659,2111746240,10,-2,2
660,2111749660,10,-2,2
661,2111753068,10,-2,2
662,2111756476,10,-2,1
663,2111759892,10,-2,1
664,2111763312,10,-2,1
665,2111766736,10,-2,1
666,2111770160,10,-2,1
667,2111773592,10,-2,1
668,2111776992,10,-2,0
669,2111780404,10,-2,0
670,2111786768,10,-2,0
671,2111790216,10,-2,0
672,2111793624,10,-2,0
673,2111797036,10,-2,0
674,2111800464,10,-2,0
675,2111803892,10,-2,0
676,2111807312,10,-2,0
677,2111810736,10,-2,1
678,2111814136,10,-2,0
679,2111817544,10,-2,1
680,2111820984,10,-2,1
681,2111824388,10,-2,0
682,2111827804,10,-2,1
683,2111831224,10,-2,1
684,2111834624,10,-2,1
685,2111838032,10,-2,1
686,2111841444,10,-2,1
687,2111844860,10,-2,1
688,2111848284,10,-2,1
689,2111851684,10,-2,1
690,2111855096,10,-2,1
691,2111858500,10,-2,1
692,2111864912,10,-1,1
693,2111868328,10,-2,1
694,2111871744,10,-2,1
695,2111875172,11,-2,1
696,2111878592,10,-2,1
697,2111882020,11,-2,0
698,2111885452,10,-2,-0
699,2111888880,10,-2,0
700,2111892316,10,-2,-0
701,2111895748,10,-2,-0
702,2111899180,10,-2,-0
703,2111902632,10,-2,-1
704,2111906072,10,-2,-0
705,2111909504,10,-2,-1
706,2111912948,10,-2,-1
707,2111916384,10,-2,-1
708,2111919820,10,-2,-1
709,2111923260,10,-2,-0
710,2111926692,10,-2,-0
711,2111930108,10,-2,-0
712,2111933548,10,-2,-0
713,2111936960,10,-2,0
714,2111948448,10,-2,1
715,2111951852,10,-2,1
716,2111955272,10,-2,1
717,2111958668,10,-2,2
718,2111962080,10,-2,2
719,2111965492,10,-2,2
720,2111968908,10,-2,2
721,2111972332,10,-2,2
722,2111975748,10,-2,2
723,2111979160,10,-1,3
724,2111982576,10,-2,3
725,2111985992,10,-2,3
726,2111989392,10,-2,3
727,2111992820,10,-2,3
728,2111996252,10,-2,3
729,2111999688,11,-2,3
730,2112003132,10,-2,3
731,2112006544,10,-2,3
732,2112009976,10,-2,3
733,2112013416,10,-2,3
734,2112016852,10,-2,3
735,2112020292,10,-2,3
736,2112026796,10,-2,2
737,2112030232,10,-2,2
738,2112033648,10,-2,2
739,2112037072,10,-2,1
740,2112040472,10,-2,1
741,2112043888,10,-2,1
742,2112047304,10,-2,1
743,2112050716,10,-2,1
744,2112054124,10,-2,1
745,2112057552,10,-2,1
746,2112060976,10,-2,1
747,2112064404,10,-2,1
748,2112067848,10,-2,0
749,2112071264,10,-2,0
750,2112074684,10,-2,1
751,2112078100,10,-2,0
752,2112081528,10,-2,0
753,2112084944,10,-2,1
754,2112088364,10,-2,1
755,2112091772,10,-2,1
756,2112095192,10,-2,1
757,2112098616,10,-2,0
758,2112105080,10,-3,1
759,2112108508,10,-2,1
760,2112111924,10,-2,1
761,2112115336,10,-2,0
762,2112118740,10,-2,1
763,2112122140,10,-2,1
764,2112125532,10,-2,2
765,2112128940,10,-1,1
766,2112132336,10,-1,2
767,2112135744,10,-2,1
768,2112139168,10,-2,2
769,2112142584,10,-2,2
770,2112146008,10,-2,2
771,2112149424,10,-2,2
772,2112152852,10,-2,2
773,2112156260,10,-2,2
774,2112159668,10,-2,2
775,2112163092,10,-2,2
776,2112166508,10,-2,2
777,2112169916,10,-2,2
778,2112173332,11,-2,1
779,2112176740,10,-2,2
780,2112183220,10,-2,1
781,2112186656,10,-2,0
782,2112190072,10,-2,0
783,2112193504,10,-2,0
784,2112196940,10,-2,0
785,2112200360,10,-2,-0
786,2112203828,10,-2,-1
787,2112207272,10,-2,-0
788,2112210708,10,-2,-1
789,2112214160,10,-2,-0
790,2112217596,10,-2,-1
791,2112221056,10,-2,-1
792,2112224496,10,-2,-1
793,2112227940,10,-2,-1
794,2112231404,10,-2,-1
795,2112234840,10,-2,-0
796,2112238280,10,-2,-1
797,2112241720,10,-2,-0
798,2112245152,10,-2,-0
799,2112248592,10,-2,-0
800,2112252024,10,-2,-0
801,2112255444,10,-2,-0
802,2112261964,10,-2,0
803,2112265376,10,-2,0
804,2112268784,11,-2,1
805,2112272200,10,-2,1
806,2112275632,10,-2,1
807,2112279052,10,-2,1
808,2112282472,10,-2,1
809,2112285892,10,-2,1
810,2112289308,10,-2,1
811,2112292712,10,-2,1
812,2112296140,10,-2,2
813,2112299548,10,-2,2
814,2112302948,10,-2,1
815,2112306368,10,-2,2
816,2112309800,10,-2,2
817,2112313232,10,-2,3
818,2112316644,10,-2,2
819,2112320080,10,-2,2
820,2112323500,10,-2,2
821,2112326916,10,-2,2
822,2112330336,10,-2,2
823,2112333772,10,-2,2
824,2112340272,10,-2,2
825,2112343700,10,-2,2
826,2112347128,10,-2,2
827,2112350568,10,-2,2
828,2112353984,10,-2,2
829,2112357416,10,-2,2
830,2112360816,10,-2,2
831,2112364240,10,-2,2
832,2112367656,10,-2,2
833,2112371064,10,-2,2
834,2112374492,10,-2,2
835,2112377912,10,-2,2
836,2112381332,10,-2,2
837,2112384752,10,-2,2
838,2112388188,10,-2,2
839,2112391580,10,-2,2
840,2112395000,10,-2,2
841,2112398444,10,-2,3
842,2112401860,10,-2,3
843,2112405288,10,-2,3
844,2112408728,10,-2,3
845,2112412160,10,-2,3
846,2112418528,10,-2,4
847,2112421968,10,-2,4
848,2112425368,10,-2,4
849,2112428808,10,-2,5
850,2112432248,10,-2,5
851,2112435676,10,-2,5
852,2112439096,10,-2,5
853,2112442540,10,-2,5
854,2112445964,10,-2,5
855,2112449404,10,-2,5
856,2112452832,10,-2,5
857,2112456268,10,-2,5
858,2112459700,10,-2,4
859,2112463136,10,-2,4
860,2112466556,10,-2,4
861,2112469980,10,-2,4
862,2112473416,10,-2,4
863,2112476852,10,-2,3
864,2112480308,10,-2,3
865,2112483740,10,-1,3
866,2112487168,10,-2,2
867,2112490608,10,-2,2
868,2112494028,10,-3,1
869,2112500428,10,-2,1
870,2112503868,10,-2,-0
871,2112507308,10,-2,-0
872,2112510744,10,-2,-0
873,2112514188,10,-2,-1
874,2112517620,10,-2,-1
875,2112521060,10,-2,-1
876,2112524492,10,-2,-1
877,2112527916,10,-2,-1
878,2112531376,10,-2,-1
879,2112534820,10,-2,-1
880,2112538244,10,-2,-1
881,2112541700,10,-2,-0
882,2112545136,10,-2,-1
883,2112548568,10,-2,0
884,2112552000,10,-2,0
885,2112555424,10,-2,0
886,2112558848,10,-2,0
887,2112562284,10,-2,1
888,2112565676,10,-2,1
889,2112569088,10,-2,1
890,2112575568,10,-2,1
891,2112578980,10,-2,2
892,2112582372,10,-2,1
893,2112585776,10,-1,2
894,2112589180,10,-2,2
895,2112592584,11,-2,2
896,2112596012,10,-2,2
897,2112599424,10,-2,2
898,2112602824,10,-2,2
899,2112606264,10,-2,2
900,2112609688,10,-2,2
901,2112613116,10,-2,3
902,2112616540,10,-2,2
903,2112619980,10,-2,2
904,2112623416,10,-2,3
905,2112626852,10,-2,2
906,2112630280,10,-2,2
907,2112633708,10,-2,2
908,2112637120,10,-2,2
909,2112640548,10,-2,2
910,2112643964,10,-2,2
911,2112647396,10,-2,2
912,2112650816,10,-2,2
913,2112657460,10,-2,2
914,2112660884,10,-2,2
915,2112664300,10,-2,2
916,2112667724,10,-2,2
917,2112671140,10,-2,2
918,2112674564,10,-2,2
919,2112678008,10,-3,2
920,2112681420,10,-2,2
921,2112684880,10,-2,2
922,2112688324,10,-2,2
923,2112691760,10,-2,2
924,2112695176,10,-2,2
925,2112698616,10,-2,2
926,2112702032,10,-2,1
927,2112705440,10,-2,2
928,2112708860,10,-2,2
929,2112712284,10,-2,2
930,2112715708,10,-2,2
931,2112719128,10,-2,1
932,2112722544,10,-2,2
933,2112725956,10,-2,2
934,2112729360,10,-2,2
935,2112735832,10,-2,2
936,2112739252,10,-2,1
937,2112742660,10,-2,1
938,2112746076,10,-2,1
939,2112749484,10,-2,1
940,2112752924,10,-2,0
941,2112756348,10,-2,1
942,2112759776,10,-2,1
943,2112763212,10,-2,1
944,2112766628,10,-2,1
945,2112770052,10,-2,0
946,2112773480,10,-2,0
947,2112776908,10,-2,1
948,2112780344,10,-2,0
949,2112783756,10,-2,0
950,2112787168,10,-2,1
951,2112790588,10,-2,1
952,2112793996,10,-2,1
953,2112797420,10,-2,2
954,2112800840,10,-2,2
955,2112804244,10,-2,1
956,2112807656,10,-2,2
957,2112814220,10,-2,2
958,2112817648,10,-2,2
959,2112821088,10,-2,2
960,2112824520,10,-2,2
961,2112827932,10,-2,2
962,2112831372,10,-2,2
963,2112834808,10,-2,3
964,2112838248,10,-2,2
965,2112841672,10,-2,3
966,2112845104,10,-2,3
967,2112848516,10,-2,3
968,2112851944,11,-2,3
969,2112855384,10,-2,3
970,2112858808,10,-2,3
971,2112862244,10,-2,3
972,2112865680,10,-2,3
973,2112869116,10,-2,2
974,2112872552,10,-2,2
975,2112875964,10,-2,2
976,2112879388,10,-2,2
977,2112882828,10,-2,2
978,2112886224,10,-2,1
979,2112892808,10,-2,2
980,2112896208,10,-2,1
981,2112899624,10,-2,1
982,2112903028,10,-2,1
983,2112906456,10,-2,1
984,2112909884,10,-2,1
985,2112913308,10,-2,1
986,2112916728,10,-2,1
987,2112920164,10,-2,1
988,2112923584,10,-2,1
989,2112927004,10,-2,1
990,2112930424,10,-2,1
991,2112933828,10,-2,1
992,2112937244,10,-2,2
993,2112940656,10,-2,2
994,2112944068,11,-2,2
995,2112947516,10,-2,2
996,2112950932,10,-2,2
997,2112954364,10,-2,2
998,2112957768,10,-2,3
999,2112961192,10,-2,2
1000,2112964620,10,-2,3
1001,2112968068,10,-2,2
1002,2112974760,10,-2,2
1003,2112978216,10,-2,2
1004,2112981656,10,-2,2
1005,2112985120,11,-2,2
1006,2112988560,10,-2,2
1007,2112992012,10,-2,2
1008,2112995468,10,-2,1
1009,2112998936,10,-2,2
1010,2113002392,10,-2,2
1011,2113005840,10,-2,2
1012,2113009268,10,-2,1
1013,2113012712,10,-2,1
1014,2113016164,10,-2,1
1015,2113019588,10,-2,1
1016,2113023012,10,-1,1
1017,2113026440,10,-2,1
1018,2113029872,10,-2,1
1019,2113033328,10,-2,1
1020,2113036768,10,-2,2
1021,2113040216,10,-2,2
1022,2113043660,10,-2,2
1023,2113050020,11,-2,2
1024,2113053440,10,-2,2
1025,2113056896,10,-2,2
1026,2113060336,11,-2,2
1027,2113063796,10,-2,2
1028,2113067228,10,-2,2
1029,2113070668,10,-2,1
1030,2113074128,10,-2,1
1031,2113077572,10,-2,1
1032,2113081004,10,-2,1
1033,2113084456,10,-2,1
1034,2113087892,10,-2,0
1035,2113091328,10,-2,0
1036,2113094796,10,-2,0
1037,2113098244,10,-2,0
1038,2113101704,10,-2,0
1039,2113105136,10,-2,1
1040,2113108564,10,-2,1
1041,2113112004,10,-2,0
1042,2113115432,10,-2,1
1043,2113118860,10,-2,1
1044,2113125280,10,-2,1
1045,2113128716,10,-2,1
1046,2113132148,10,-2,2
1047,2113135604,10,-2,2
1048,2113139036,10,-2,2
1049,2113142472,10,-2,2
1050,2113145908,11,-2,2
1051,2113149328,10,-2,2
1052,2113152756,10,-2,2
1053,2113156220,10,-2,2
1054,2113159668,10,-2,2
1055,2113163072,11,-2,2
1056,2113166536,10,-2,2
1057,2113169976,10,-3,2
1058,2113173424,10,-2,2
1059,2113176864,10,-2,2
1060,2113180300,10,-2,2
1061,2113183760,10,-2,2
1062,2113187184,10,-2,1
1063,2113190608,10,-2,2
1064,2113194052,10,-2,1
1065,2113197500,10,-2,1
1066,2113204036,10,-2,2
1067,2113207484,10,-2,1
1068,2113210916,10,-2,1
1069,2113214372,10,-2,1
1070,2113217808,10,-2,1
1071,2113221244,10,-2,1
1072,2113224692,10,-2,1
1073,2113228144,10,-2,1
1074,2113231572,10,-2,1
1075,2113235004,10,-2,2
1076,2113238440,10,-2,1
1077,2113241892,10,-2,1
1078,2113245348,10,-2,1
1079,2113248796,10,-3,1
1080,2113252260,10,-2,1
1081,2113255704,10,-2,0
1082,2113259148,10,-3,0
1083,2113262616,10,-3,1
1084,2113266060,10,-2,0
1085,2113269508,10,-3,-0
1086,2113272996,10,-3,-0
1087,2113279532,10,-2,-0
1088,2113283024,10,-2,-1
1089,2113286520,10,-2,-1
1090,2113290004,10,-2,-1
1091,2113293504,10,-3,-1
1092,2113297000,10,-2,-1
1093,2113300476,10,-3,-1
1094,2113303960,10,-2,-1
1095,2113307448,10,-2,-1
1096,2113310928,10,-2,-0
1097,2113314416,9,-2,-1
1098,2113317864,10,-3,-1
1099,2113321344,10,-3,-0
1100,2113324808,10,-2,1
1101,2113328252,10,-2,-0
1102,2113331724,10,-2,-0
1103,2113335204,10,-2,1
1104,2113338652,10,-2,1
1105,2113342084,10,-2,1
1106,2113345544,10,-2,1
1107,2113348968,10,-2,2
1108,2113355468,10,-2,1
1109,2113358908,10,-2,2
1110,2113362340,10,-3,2
1111,2113365776,10,-2,1
1112,2113369224,10,-2,2
1113,2113372668,10,-2,1
1114,2113376112,10,-2,1
1115,2113379552,10,-2,1
1116,2113383004,10,-2,0
1117,2113386472,10,-2,0
1118,2113389928,10,-2,-0
1119,2113393420,10,-2,-0
1120,2113396904,10,-2,-0
1121,2113400396,10,-2,-1
1122,2113403872,9,-2,-1
1123,2113407340,9,-2,-2
1124,2113410792,9,-3,-2
1125,2113414260,9,-3,-2
1126,2113417704,9,-3,-3
1127,2113421176,9,-3,-3
1128,2113424632,9,-3,-3
1129,2113431208,9,-3,-3
1130,2113434688,9,-3,-4
1131,2113438136,9,-3,-4
1132,2113441596,9,-2,-3
1133,2113445044,9,-2,-3
1134,2113448488,10,-2,-3
1135,2113451832,10,-2,-3
1136,2113455324,9,-2,-2
1137,2113458784,10,-2,-1
1138,2113462252,10,-2,-1
1139,2113465724,10,-2,-0
1140,2113469208,10,-2,-0
1141,2113472692,11,-2,-0
1142,2113476172,10,-2,1
1143,2113479624,10,-2,1
1144,2113483080,10,-2,1
1145,2113486528,10,-3,0
1146,2113489988,10,-3,0
1147,2113493436,9,-3,0
1148,2113496884,10,-3,-0
1149,2113500364,9,-2,-1
1150,2113506964,9,-3,-2
1151,2113510428,9,-3,-2
1152,2113513896,9,-2,-3
1153,2113517356,9,-3,-3
1154,2113520824,9,-3,-4
1155,2113524280,9,-3,-4
1156,2113527744,9,-3,-4
1157,2113531200,9,-3,-5
1158,2113534648,9,-3,-5
1159,2113538100,9,-3,-6
1160,2113541552,9,-3,-6
1161,2113545000,8,-3,-6
1162,2113548468,8,-3,-7
1163,2113551904,8,-3,-7
1164,2113555368,8,-3,-8
1165,2113558816,8,-3,-8
1166,2113562252,8,-3,-8
1167,2113565724,8,-3,-9
1168,2113569188,8,-3,-10
1169,2113572684,8,-4,-10
1170,2113576168,7,-4,-10
1171,2113582792,7,-5,-10
1172,2113586288,7,-4,-11
1173,2113589776,8,-4,-11
1174,2113593252,7,-5,-11
1175,2113596744,7,-5,-11
1176,2113600236,8,-5,-11
1177,2113603740,7,-6,-11
1178,2113607232,7,-5,-11
1179,2113610732,8,-5,-11
1180,2113614224,7,-4,-11
1181,2113617712,8,-5,-11
1182,2113621200,8,-4,-10
1183,2113624696,8,-4,-10
1184,2113628200,8,-4,-10
1185,2113631696,7,-4,-10
1186,2113635196,8,-4,-10
1187,2113638692,8,-5,-10
1188,2113642184,8,-4,-10
1189,2113645700,8,-5,-10
1190,2113649188,8,-4,-10
1191,2113652680,8,-4,-10
1192,2113659100,8,-4,-11
1193,2113662580,8,-4,-12
1194,2113666076,8,-4,-12
1195,2113669568,8,-4,-13
1196,2113673052,8,-4,-13
1197,2113676556,7,-5,-14
1198,2113680056,7,-4,-14
1199,2113683556,7,-5,-15
1200,2113687024,7,-5,-16
1201,2113690516,7,-5,-16
1202,2113694012,6,-5,-16
1203,2113697500,6,-4,-17
1204,2113701008,6,-4,-17
1205,2113704500,7,-4,-17
1206,2113708008,7,-4,-17
1207,2113711508,7,-4,-16
1208,2113714996,7,-3,-16
1209,2113718484,7,-3,-15
1210,2113721964,7,-2,-15
1211,2113725440,7,-2,-14
1212,2113731804,8,-2,-12
1213,2113735280,8,-2,-11
1214,2113738768,8,-2,-10
1215,2113742248,9,-2,-10
1216,2113745728,8,-2,-8
1217,2113749168,8,-2,-8
1218,2113752604,9,-2,-7
1219,2113756076,8,-2,-8
1220,2113759532,9,-3,-7
1221,2113762996,9,-3,-7
1222,2113766456,9,-3,-7
1223,2113769904,9,-3,-7
1224,2113773372,9,-3,-7
1225,2113776840,9,-3,-7
1226,2113780296,9,-3,-8
1227,2113783756,9,-3,-9
1228,2113787228,10,-3,-9
1229,2113790724,10,-3,-9
1230,2113794232,9,-3,-10
1231,2113797712,9,-2,-11
1232,2113801208,9,-3,-11
1233,2113807832,9,-2,-11
1234,2113811332,9,-2,-11
1235,2113814832,9,-3,-11
1236,2113818324,9,-3,-12
1237,2113821836,9,-2,-11
1238,2113825316,9,-2,-12
1239,2113828800,8,-2,-11
1240,2113832292,9,-3,-11
1241,2113835784,9,-2,-12
1242,2113839276,9,-2,-12
1243,2113842768,8,-2,-12
1244,2113846248,8,-2,-12
1245,2113849736,8,-2,-12
1246,2113853212,8,-2,-12
1247,2113856708,8,-2,-13
1248,2113860196,8,-2,-12
1249,2113863692,7,-2,-12
1250,2113867176,8,-2,-13
1251,2113870656,7,-3,-13
1252,2113874152,8,-3,-13
1253,2113877636,7,-3,-13
1254,2113884148,7,-2,-13
1255,2113887624,7,-1,-13
1256,2113891104,8,-1,-13
1257,2113894596,7,-1,-13
1258,2113898080,7,-1,-13
1259,2113901564,7,-1,-13
1260,2113905048,8,-1,-13
1261,2113908528,8,-1,-13
1262,2113912008,8,-1,-13
1263,2113915488,8,-2,-12
1264,2113918972,8,-2,-13
1265,2113922460,8,-2,-13
1266,2113925956,9,-2,-13
1267,2113929436,9,-2,-14
1268,2113932924,9,-2,-14
1269,2113936416,9,-3,-14
1270,2113939900,8,-3,-15
1271,2113943380,8,-3,-15
1272,2113946872,8,-3,-15
1273,2113950356,8,-2,-15
1274,2113956872,8,-2,-15
1275,2113960356,8,-2,-15
1276,2113963836,8,-2,-14
1277,2113967324,8,-2,-14
1278,2113970804,7,-2,-13
1279,2113974292,8,-2,-13
1280,2113977756,8,-2,-12
1281,2113981232,8,-2,-12
1282,2113984720,9,-2,-11
1283,2113988224,10,-3,-12
1284,2113991736,9,-3,-13
1285,2113995220,9,-3,-13
1286,2113998700,9,-3,-13
1287,2114002192,9,-4,-13
1288,2114005672,9,-3,-14
1289,2114009156,9,-3,-14
1290,2114012636,8,-3,-15
1291,2114016124,9,-3,-16
1292,2114019616,8,-3,-16
1293,2114023096,8,-2,-17
1294,2114029704,8,-3,-19
1295,2114033188,8,-3,-20
1296,2114036668,8,-2,-21
1297,2114040152,8,-3,-22
1298,2114043636,7,-2,-23
1299,2114047128,7,-2,-23
1300,2114050604,7,-2,-23
1301,2114054072,7,-2,-23
1302,2114057560,7,-2,-23
1303,2114061032,6,-2,-24
1304,2114064512,6,-2,-24
1305,2114067988,6,-2,-23
1306,2114071468,6,-3,-23
1307,2114074944,6,-3,-23
1308,2114078416,7,-3,-23
1309,2114081908,7,-3,-22
1310,2114085380,8,-3,-23
1311,2114088852,7,-2,-22
1312,2114092328,8,-2,-23
1313,2114095792,8,-2,-23
1314,2114099268,8,-2,-22
1315,2114105792,8,-1,-23
1316,2114109252,8,-2,-23
1317,2114112728,8,-2,-23
1318,2114116200,8,-2,-23
1319,2114119676,7,-2,-24
1320,2114123164,7,-3,-24
1321,2114126644,7,-3,-25
1322,2114130128,7,-3,-25
1323,2114133604,8,-4,-25
1324,2114137084,8,-4,-26
1325,2114140564,8,-3,-26
1326,2114144044,8,-3,-27
1327,2114147528,8,-3,-27
1328,2114151004,8,-3,-27
1329,2114154488,8,-3,-27
1330,2114157968,8,-3,-27
1331,2114161444,8,-2,-27
1332,2114164936,8,-3,-27
1333,2114168412,8,-2,-27
1334,2114171892,8,-3,-26
1335,2114178516,8,-2,-25
1336,2114181996,9,-3,-24
1337,2114185480,8,-3,-24
1338,2114188972,9,-3,-24
1339,2114192464,9,-3,-24
1340,2114195936,9,-2,-24
1341,2114199416,9,-2,-24
1342,2114202908,8,-2,-24
1343,2114206392,8,-2,-24
1344,2114209880,7,-2,-24
1345,2114213348,7,-2,-24
1346,2114216824,8,-2,-24
1347,2114220308,8,-2,-23
1348,2114223780,7,-2,-23
1349,2114227268,7,-2,-23
1350,2114230752,7,-3,-24
1351,2114234240,8,-3,-24
1352,2114237724,8,-2,-24
1353,2114241200,8,-2,-24
1354,2114244680,8,-2,-25
1355,2114248156,8,-2,-25
1356,2114254556,8,-1,-26
1357,2114258040,8,-1,-26
1358,2114261512,8,-1,-26
1359,2114264984,8,-0,-26
1360,2114268468,7,-1,-26
1361,2114271944,7,-1,-25
1362,2114275436,7,-1,-26
1363,2114278912,7,-1,-25
1364,2114282388,7,-1,-25
1365,2114285868,8,-1,-25
1366,2114289340,8,-1,-24
1367,2114292824,8,-1,-24
1368,2114296296,8,-1,-24
1369,2114299772,7,-1,-23
1370,2114303240,7,-1,-23
1371,2114306712,7,-1,-22
1372,2114310184,7,-1,-22
1373,2114313652,7,-2,-21
1374,2114317132,7,-2,-21
1375,2114320612,7,-2,-20
1376,2114326988,7,-2,-18
1377,2114330480,7,-2,-17
1378,2114333964,8,-2,-17
1379,2114337452,7,-2,-16
1380,2114340944,8,-2,-15
1381,2114344412,8,-2,-15
1382,2114347884,8,-2,-15
1383,2114351364,8,-2,-14
1384,2114354840,9,-2,-13
1385,2114358332,9,-2,-13
1386,2114361808,8,-2,-13
1387,2114365296,9,-2,-13
1388,2114368780,8,-2,-13
1389,2114372264,9,-2,-12
1390,2114375748,8,-3,-12
1391,2114379236,8,-2,-12
1392,2114382712,8,-2,-12
1393,2114386196,8,-2,-12
1394,2114389668,8,-2,-11
1395,2114393160,8,-2,-11
1396,2114396648,8,-2,-11
1397,2114408028,9,-2,-9
1398,2114411484,8,-2,-8
1399,2114414932,9,-2,-8
1400,2114418368,9,-2,-8
1401,2114421816,9,-2,-7
1402,2114425252,10,-2,-7
1403,2114428760,10,-2,-7
1404,2114432240,10,-2,-7
1405,2114435716,10,-2,-7
1406,2114439208,10,-2,-8
1407,2114442676,10,-1,-8
1408,2114446148,10,-2,-8
1409,2114449628,10,-1,-9
1410,2114453100,10,-2,-9
1411,2114456580,9,-2,-10
1412,2114460052,9,-2,-10
1413,2114463516,9,-1,-11
1414,2114466996,9,-2,-12
1415,2114470464,9,-2,-12
1416,2114473944,9,-2,-12
1417,2114477420,9,-2,-13
1418,2114483920,9,-1,-14
1419,2114487404,9,-1,-15
1420,2114490880,9,-1,-15
1421,2114494348,9,-1,-16
1422,2114497832,9,-1,-16
1423,2114501304,9,-1,-17
1424,2114504796,9,-1,-17
1425,2114508276,9,-1,-18
1426,2114511748,9,-1,-19
1427,2114515228,9,-1,-19
1428,2114518708,9,-1,-20
1429,2114522196,9,-1,-21
1430,2114525680,9,-1,-21
1431,2114529152,8,-0,-22
1432,2114532652,8,-0,-23
1433,2114536132,8,0,-23
1434,2114539596,8,-0,-24
1435,2114543080,8,-0,-24
1436,2114546564,8,0,-25
1437,2114550016,7,-0,-25
1438,2114556604,7,-1,-25
1439,2114560104,7,-1,-26
1440,2114563580,7,-1,-26
1441,2114567064,8,-0,-26
1442,2114570556,8,-0,-27
1443,2114574040,8,-0,-26
1444,2114577528,7,0,-26
1445,2114580996,8,-0,-27
1446,2114584484,7,-0,-27
1447,2114587980,7,-0,-27
1448,2114591476,7,-0,-27
1449,2114594972,7,-0,-26
1450,2114598456,7,-1,-26
1451,2114601936,7,-1,-25
1452,2114605424,7,-1,-25
1453,2114608904,7,-2,-24
1454,2114612396,7,-2,-24
1455,2114615880,7,-1,-24
1456,2114619368,8,-2,-24
1457,2114622848,8,-1,-24
1458,2114626332,8,-1,-24
1459,2114632868,8,-1,-24
1460,2114636352,8,-1,-24
1461,2114639836,8,-0,-25
1462,2114643328,7,-1,-25
1463,2114646812,7,-1,-25
1464,2114650312,7,-1,-26
1465,2114653800,7,-1,-25
1466,2114657288,7,-1,-26
1467,2114660764,6,-1,-26
1468,2114664244,6,-1,-26
1469,2114667720,6,-1,-26
1470,2114671204,6,-1,-26
1471,2114674684,6,-2,-27
1472,2114678176,7,-2,-27
1473,2114681668,7,-1,-27
1474,2114685148,8,-2,-27
1475,2114688640,7,-1,-28
1476,2114692136,7,-0,-27
1477,2114695620,7,-0,-28
1478,2114699112,7,-0,-28
1479,2114710176,7,0,-27
1480,2114713648,7,-1,-27
1481,2114717132,7,-1,-26
1482,2114720608,7,-1,-26
1483,2114724092,7,-1,-25
1484,2114727564,7,-1,-24
1485,2114731048,7,-1,-24
1486,2114734524,7,-1,-23
1487,2114738000,7,-1,-22
1488,2114741476,7,-1,-22
1489,2114744948,6,-2,-21
1490,2114748424,6,-2,-20
1491,2114751916,6,-2,-20
1492,2114755396,6,-2,-19
1493,2114758884,6,-3,-18
1494,2114762368,6,-3,-17
1495,2114765856,5,-3,-17
1496,2114769336,5,-3,-16
1497,2114772820,6,-3,-15
1498,2114776308,6,-3,-14
1499,2114779788,6,-3,-14
1500,2114787748,6,-3,-12
1501,2114791224,7,-2,-11
1502,2114794700,7,-3,-11
1503,2114798180,7,-3,-10
1504,2114801688,7,-3,-10
1505,2114805160,7,-3,-9
1506,2114808612,7,-2,-9
1507,2114812060,7,-2,-8
1508,2114815500,7,-3,-7
1509,2114818948,7,-3,-6
1510,2114822392,7,-3,-6
1511,2114825840,8,-2,-5
1512,2114829304,8,-2,-5
1513,2114832756,8,-2,-4
1514,2114836200,8,-2,-4
1515,2114839660,8,-2,-4
1516,2114843084,8,-2,-3
1517,2114846548,9,-2,-3
1518,2114849992,9,-2,-3
1519,2114853416,9,-2,-2
1520,2114856852,9,-1,-2
1521,2114863296,9,-2,-0
1522,2114866728,10,-2,1
1523,2114870176,10,-2,1
1524,2114873612,10,-2,2
1525,2114877048,10,-2,2
1526,2114880500,10,-2,3
1527,2114883948,10,-3,3
1528,2114887380,9,-3,4
1529,2114890820,10,-3,5
1530,2114894256,10,-3,6
1531,2114897716,10,-3,6
1532,2114901172,10,-3,6
1533,2114904612,10,-3,7
1534,2114908076,11,-3,8
1535,2114911520,11,-2,8
1536,2114914964,11,-2,8
1537,2114918432,11,-2,8
1538,2114921876,11,-2,9
1539,2114925316,11,-2,9
1540,2114928776,11,-2,10
1541,2114932256,11,-2,10
1542,2114939024,12,-3,10
1543,2114942500,12,-3,11
1544,2114945976,12,-3,11
1545,2114949476,12,-3,11
1546,2114952952,12,-3,12
1547,2114956448,12,-2,12
1548,2114959928,12,-2,12
1549,2114963412,12,-2,11
1550,2114966892,11,-2,11
1551,2114970360,12,-2,12
1552,2114973856,11,-3,12
1553,2114977332,11,-2,12
1554,2114980808,11,-3,12
1555,2114984288,11,-3,13
1556,2114987764,11,-3,13
1557,2114991264,11,-3,13
1558,2114994744,11,-3,13
1559,2114998220,12,-3,14
1560,2115001712,12,-3,14
1561,2115005192,12,-3,15
1562,2115011820,12,-3,16
1563,2115015300,12,-3,16
1564,2115018804,12,-3,17
1565,2115022280,12,-3,17
1566,2115025768,12,-3,18
1567,2115029264,12,-3,18
1568,2115032756,12,-3,19
1569,2115036256,12,-3,19
1570,2115039744,12,-3,19
1571,2115043232,12,-3,19
1572,2115046740,13,-3,20
1573,2115050228,13,-3,20
1574,2115053740,12,-3,21
1575,2115057228,13,-2,21
1576,2115060728,13,-3,22
1577,2115064220,12,-2,22
1578,2115067716,13,-2,22
1579,2115071208,13,-3,23
1580,2115074700,13,-3,23
1581,2115078200,13,-3,23
1582,2115081684,13,-3,23
1583,2115088312,14,-3,24
1584,2115091800,13,-3,25
1585,2115095288,13,-3,25
1586,2115098784,13,-3,25
1587,2115102272,13,-3,25
1588,2115105760,13,-3,26
1589,2115109248,14,-3,26
1590,2115112728,13,-3,26
1591,2115116224,14,-3,26
1592,2115119720,13,-3,26
1593,2115123220,13,-3,26
1594,2115126704,13,-3,26
1595,2115130188,13,-3,25
1596,2115133680,13,-3,25
1597,2115137164,14,-3,25
1598,2115140664,14,-3,24
1599,2115144152,14,-3,23
1600,2115147644,14,-2,22
1601,2115151112,14,-2,22
1602,2115154588,14,-2,21
1603,2115161208,14,-2,20
1604,2115164688,13,-2,19
1605,2115168184,13,-2,19
1606,2115171672,13,-2,19
1607,2115175156,13,-2,18
1608,2115178656,13,-2,18
1609,2115182148,13,-2,18
1610,2115185636,13,-3,18
1611,2115189132,12,-3,18
1612,2115192620,12,-3,19
1613,2115196112,12,-3,19
1614,2115199604,12,-3,20
1615,2115203100,12,-3,20
1616,2115206584,12,-3,21
1617,2115210068,12,-3,22
1618,2115213560,12,-3,22
1619,2115217048,12,-3,23
1620,2115220540,12,-3,24
1621,2115224028,12,-3,25
1622,2115227516,12,-4,26
1623,2115231012,12,-4,26
1624,2115237612,13,-4,28
1625,2115241116,13,-4,29
1626,2115244608,13,-4,29
1627,2115248100,13,-4,30
1628,2115251596,13,-4,31
1629,2115255080,13,-4,31
1630,2115258580,13,-4,32
1631,2115262064,13,-3,32
1632,2115265556,14,-3,32
1633,2115269040,13,-3,33
1634,2115272528,13,-4,33
1635,2115276024,13,-4,34
1636,2115279508,14,-4,34
1637,2115283004,14,-4,35
1638,2115286480,14,-3,35
1639,2115289968,14,-4,36
1640,2115293464,14,-4,37
1641,2115296956,15,-3,38
1642,2115300452,15,-3,38
1643,2115303940,15,-3,38
1644,2115310572,15,-3,40
1645,2115314068,15,-3,41
1646,2115317556,15,-3,41
1647,2115321056,14,-4,42
1648,2115324544,14,-4,43
1649,2115328052,14,-4,43
1650,2115331544,14,-5,44
1651,2115335040,14,-5,45
1652,2115338540,14,-5,45
1653,2115342036,14,-4,45
1654,2115345540,14,-4,46
1655,2115349024,14,-4,47
1656,2115352500,14,-4,47
1657,2115355992,15,-4,47
1658,2115359480,16,-3,48
1659,2115362976,16,-3,47
1660,2115366460,16,-3,46
1661,2115369940,16,-3,46
1662,2115373428,16,-3,46
1663,2115376908,16,-4,45
1664,2115380408,16,-4,44
1665,2115386944,16,-4,42
1666,2115390416,16,-3,41
1667,2115393892,15,-3,40
1668,2115397372,15,-3,39
1669,2115400860,15,-3,38
1670,2115404344,15,-3,36
1671,2115407828,15,-2,35
1672,2115411312,15,-2,34
1673,2115414788,14,-2,34
1674,2115418276,14,-2,33
1675,2115421752,14,-2,33
1676,2115425224,14,-3,33
1677,2115428708,14,-3,33
1678,2115432196,14,-4,34
1679,2115435692,14,-4,34
1680,2115439160,14,-4,34
1681,2115442636,14,-4,34
1682,2115446124,14,-4,35
1683,2115449600,13,-4,35
1684,2115453088,13,-3,35
1685,2115459476,12,-3,35
1686,2115462952,12,-4,35
1687,2115466432,13,-4,35
1688,2115469908,13,-4,35
1689,2115473380,13,-3,35
1690,2115476860,13,-3,34
1691,2115480328,13,-3,33
1692,2115483808,13,-3,32
1693,2115487276,13,-2,31
1694,2115490752,14,-3,30
1695,2115494236,14,-3,28
1696,2115497716,14,-2,27
1697,2115501176,15,-2,26
1698,2115504640,14,-2,25
1699,2115508100,14,-2,24
1700,2115511580,14,-2,23
1701,2115515048,13,-2,22
1702,2115518524,13,-2,20
1703,2115522000,13,-3,19
1704,2115525468,12,-3,18
1705,2115528952,12,-3,18
1706,2115535404,11,-4,17
1707,2115538888,11,-3,16
1708,2115542368,10,-3,16
1709,2115545844,11,-3,17
1710,2115549332,10,-3,17
1711,2115552804,10,-2,18
1712,2115556280,11,-2,18
1713,2115559764,11,-2,19
1714,2115563236,11,-2,20
1715,2115566712,12,-2,21
1716,2115570176,12,-2,22
1717,2115573648,12,-2,23
1718,2115577120,12,-2,24
1719,2115580584,12,-2,25
1720,2115584068,12,-2,26
1721,2115587540,12,-2,27
1722,2115591012,12,-3,29
1723,2115594488,12,-3,29
1724,2115597964,12,-3,30
1725,2115601432,12,-3,31
1726,2115608024,12,-3,33
1727,2115611496,12,-3,33
1728,2115614972,12,-3,34
1729,2115618436,12,-3,35
1730,2115621916,12,-3,36
1731,2115625388,12,-3,36
1732,2115628860,12,-2,38
1733,2115632344,12,-3,38
1734,2115635812,12,-2,38
1735,2115639280,12,-3,38
1736,2115642764,12,-2,38
1737,2115646236,12,-2,38
1738,2115649712,13,-2,38
1739,2115653180,12,-2,38
1740,2115656644,12,-1,38
1741,2115660112,13,-1,38
1742,2115663576,12,-1,38
1743,2115667060,13,-1,38
1744,2115670536,13,-2,37
1745,2115674012,13,-2,37
1746,2115677488,12,-2,36
1747,2115684020,12,-2,35
1748,2115687524,12,-2,34
1749,2115691016,12,-2,33
1750,2115694500,12,-3,33
1751,2115698000,12,-3,31
1752,2115701484,12,-2,31
1753,2115705000,12,-2,30
1754,2115708488,12,-2,29
1755,2115711980,12,-2,28
1756,2115715464,12,-1,27
1757,2115718940,11,-1,26
1758,2115722444,12,-1,26
1759,2115725940,12,-0,26
1760,2115729436,12,-0,26
1761,2115732924,12,-0,25
1762,2115736420,12,0,26
1763,2115739872,12,0,25
1764,2115743328,12,0,26
1765,2115746776,12,0,26
1766,2115750232,12,0,26
1767,2115756736,12,0,27
1768,2115760192,12,-0,27
1769,2115763668,12,-0,27
1770,2115767152,12,-0,28
1771,2115770648,12,-1,28
1772,2115774148,12,-0,28
1773,2115777652,12,-1,28
1774,2115781136,11,-1,28
1775,2115784636,12,-1,29
1776,2115788124,11,-0,29
1777,2115791616,11,-1,30
1778,2115795108,12,-1,29
1779,2115798600,12,-0,30
1780,2115802080,11,-1,30
1781,2115805564,12,-1,30
1782,2115809052,11,-1,31
1783,2115812540,12,-1,31
1784,2115816000,12,-1,32
1785,2115819480,12,-1,32
1786,2115822968,12,-1,32
1787,2115826428,12,-1,32
1788,2115832952,12,-1,33
1789,2115836432,13,-0,33
1790,2115839908,12,-0,33
1791,2115843388,12,1,33
1792,2115846832,13,1,34
1793,2115850288,12,0,35
1794,2115853716,13,0,35
1795,2115857156,12,0,35
1796,2115860624,12,-0,36
1797,2115864100,12,-1,36
1798,2115867576,13,-1,36
1799,2115871052,12,-0,37
1800,2115874536,12,-1,37
1801,2115878028,12,-0,37
1802,2115881516,12,0,37
1803,2115884980,12,1,37
1804,2115888428,12,1,37
1805,2115891876,12,1,37
1806,2115895336,12,2,38
1807,2115898780,12,2,38
1808,2115902220,12,1,38
1809,2115908760,12,1,38
1810,2115912200,12,1,38
1811,2115915656,13,1,38
1812,2115919104,12,0,39
1813,2115922544,12,0,39
1814,2115926012,12,0,39
1815,2115929472,12,-0,39
1816,2115932952,12,-0,39
1817,2115936444,13,-0,39
1818,2115939932,12,-0,39
1819,2115943412,13,-0,38
1820,2115946900,13,-0,38
1821,2115950380,12,-1,38
1822,2115953868,12,-1,37
1823,2115957348,12,-0,37
1824,2115960828,12,-0,37
1825,2115964316,12,-1,37
1826,2115967788,12,-0,36
1827,2115971268,12,-0,36
1828,2115974744,12,-1,36
1829,2115978220,12,0,36
1830,2115984740,12,0,36
1831,2115988176,13,0,35
1832,2115991616,13,0,36
1833,2115995052,13,1,35
1834,2115998512,13,-0,35
1835,2116001984,13,0,35
1836,2116005416,14,-0,35
1837,2116008896,14,-0,35
1838,2116012372,14,0,35
1839,2116015800,14,0,35
1840,2116019236,14,1,34
1841,2116022652,14,1,34
1842,2116026080,14,1,34
1843,2116029512,14,1,33
1844,2116032928,14,2,33
1845,2116036352,14,2,32
1846,2116039800,14,2,32
1847,2116043212,14,2,31
1848,2116046660,14,1,31
1849,2116050084,14,1,30
1850,2116053524,14,1,30
1851,2116059900,14,1,30
1852,2116063356,14,1,30
1853,2116066792,14,1,30
1854,2116070248,14,1,29
1855,2116073684,14,1,29
1856,2116077132,14,1,29
1857,2116080580,14,1,28
1858,2116084020,14,1,28
1859,2116087452,13,1,28
1860,2116090896,13,1,28
1861,2116094328,13,1,27
1862,2116097756,13,1,27
1863,2116101196,13,1,26
1864,2116104628,13,1,27
1865,2116108080,13,0,26
1866,2116111524,13,0,26
1867,2116114960,13,-0,25
1868,2116118424,12,0,25
1869,2116121872,12,-0,25
1870,2116125332,12,-0,25
1871,2116128816,12,-1,25
1872,2116135332,12,-1,25
1873,2116138800,12,-0,25
1874,2116142272,12,0,25
1875,2116145704,12,0,26
1876,2116149152,12,0,26
1877,2116152604,12,-0,26
1878,2116156064,12,0,27
1879,2116159508,12,0,28
1880,2116162936,12,0,28
1881,2116166380,12,-0,28
1882,2116169864,13,0,28
1883,2116173288,13,0,29
1884,2116176748,13,0,29
1885,2116180188,13,0,29
1886,2116183656,13,-0,29
1887,2116187132,13,0,29
1888,2116190584,13,-0,29
1889,2116194060,14,-0,29
1890,2116197556,13,-0,29
1891,2116201024,13,0,29
1892,2116204468,13,1,29
1893,2116210976,13,1,29
1894,2116214404,13,1,29
1895,2116217864,12,2,29
1896,2116221300,12,2,29
1897,2116224736,12,2,30
1898,2116228180,13,2,30
1899,2116231624,13,2,30
1900,2116235060,12,2,31
1901,2116238500,13,1,31
1902,2116241924,13,1,31
1903,2116245372,13,1,31
1904,2116248812,13,1,31
1905,2116252256,13,0,32
1906,2116255716,13,-0,31
1907,2116259196,13,0,31
1908,2116262636,13,0,32
1909,2116266088,13,0,31
1910,2116269528,13,0,32
1911,2116272972,13,0,32
1912,2116276416,13,1,32
1913,2116279848,13,0,32
1914,2116286368,14,1,32
1915,2116289796,13,1,31
1916,2116293228,14,1,32
1917,2116296676,14,1,31
1918,2116300108,14,1,31
1919,2116303536,14,1,31
1920,2116306988,13,1,30
1921,2116310424,13,0,29
1922,2116313868,13,-0,28
1923,2116317352,13,0,27
1924,2116320800,13,-1,26
1925,2116324276,12,-0,25
1926,2116327756,12,-0,24
1927,2116331232,12,-0,23
1928,2116334720,12,-0,22
1929,2116338200,11,-1,21
1930,2116341696,11,-0,20
1931,2116345188,11,-0,20
1932,2116348672,11,0,19
1933,2116352136,11,-0,19
1934,2116355628,11,-1,18
1935,2116362320,11,-1,17
1936,2116365768,11,-0,16
1937,2116369256,11,-1,16
1938,2116372736,11,-1,15
1939,2116376220,11,-1,15
1940,2116379704,11,-1,15
1941,2116383180,11,-1,15
1942,2116386668,11,-1,15
1943,2116390144,11,-0,14
1944,2116393616,11,-1,14
1945,2116397100,11,-1,14
1946,2116400572,11,-1,15
1947,2116404040,11,-1,15
1948,2116407516,11,-1,15
1949,2116410984,11,-1,15
1950,2116414456,11,-1,15
1951,2116417940,11,-2,15
1952,2116421408,11,-2,15
1953,2116424896,11,-1,15
1954,2116428376,10,-1,14
1955,2116431852,11,-1,15
1956,2116438376,11,-1,14
1957,2116441852,11,-1,14
1958,2116445340,11,-1,14
1959,2116448816,11,-1,14
1960,2116452296,11,-1,14
1961,2116455784,11,-1,15
1962,2116459268,11,-1,15
1963,2116462752,11,-1,15
1964,2116466224,11,-1,15
1965,2116469700,11,-1,16
1966,2116473188,11,-1,16
1967,2116476660,11,-1,16
1968,2116480156,11,-1,16
1969,2116483640,12,-1,17
1970,2116487120,12,-1,17
1971,2116490604,11,-0,17
1972,2116494080,11,-0,17
1973,2116497572,11,-0,17
1974,2116501056,11,-0,17
1975,2116504536,11,-1,16
1976,2116511072,11,-1,16
1977,2116514540,11,-1,16
1978,2116518024,11,-1,16
1979,2116521488,11,-1,15
1980,2116524956,11,-1,15
1981,2116528428,11,-1,14
1982,2116531892,11,-1,13
1983,2116535372,11,-1,13
1984,2116538848,11,-1,12
1985,2116542320,11,-1,11
1986,2116545800,11,-1,11
1987,2116549272,11,-2,10
1988,2116552760,11,-1,10
1989,2116556228,11,-2,9
1990,2116559664,11,-1,9
1991,2116563112,11,-2,9
1992,2116566540,11,-2,8
1993,2116569996,11,-2,8
1994,2116573428,11,-2,7
1995,2116576864,11,-2,8
1996,2116580308,11,-2,7
1997,2116586820,10,-2,7
1998,2116590248,11,-2,6
1999,2116593712,10,-3,6
2000,2116597152,10,-2,6
2001,2116600588,10,-2,6
2002,2116604032,10,-2,5
2003,2116607472,10,-3,5
2004,2116610936,10,-2,5
2005,2116614380,10,-2,4
2006,2116617816,10,-2,4
2007,2116621276,10,-2,4
2008,2116624716,10,-2,4
2009,2116628164,9,-2,4
2010,2116631592,10,-2,3
2011,2116635024,10,-2,3
2012,2116638460,10,-2,3
2013,2116641916,10,-2,3
2014,2116645356,9,-2,2
2015,2116648796,10,-2,3
2016,2116652248,10,-2,2
2017,2116655700,10,-2,3
2018,2116662156,10,-2,3
2019,2116665600,10,-3,2
2020,2116669048,10,-2,2
2021,2116672500,10,-3,2
2022,2116675944,10,-2,2
2023,2116679364,10,-3,2
2024,2116682796,10,-2,1
2025,2116686224,10,-3,1
2026,2116689672,10,-3,1
2027,2116693116,10,-3,0
2028,2116696572,10,-2,-0
2029,2116700048,10,-3,-1
2030,2116703524,10,-3,-1
2031,2116706996,10,-3,-1
2032,2116710492,10,-3,-2
2033,2116713980,10,-3,-3
2034,2116717456,9,-3,-3
2035,2116720904,9,-3,-4
2036,2116724344,9,-3,-4
2037,2116727800,9,-3,-5
2038,2116731244,9,-3,-6
2039,2116737684,9,-3,-7
2040,2116741152,9,-3,-7
2041,2116744600,9,-3,-8
2042,2116748044,9,-3,-8
2043,2116751500,9,-3,-9
2044,2116754944,8,-4,-9
2045,2116758416,8,-3,-10
2046,2116761908,8,-3,-10
2047,2116765388,9,-3,-10
2048,2116768880,8,-3,-11
2049,2116772360,8,-3,-11
2050,2116775852,8,-3,-11
2051,2116779336,8,-3,-12
2052,2116782816,8,-4,-12
2053,2116786312,8,-3,-12
2054,2116789800,8,-4,-13
2055,2116793292,9,-5,-13
2056,2116796784,8,-4,-14
2057,2116800280,8,-4,-14
2058,2116803784,8,-4,-15
2059,2116807268,8,-4,-15
2060,2116818936,8,-4,-17
2061,2116822428,8,-4,-17
2062,2116825920,8,-4,-18
2063,2116829416,8,-4,-18
2064,2116832916,8,-4,-18
2065,2116836412,8,-5,-18
2066,2116839908,8,-5,-19
2067,2116843396,8,-4,-19
2068,2116846904,8,-4,-20
2069,2116850392,8,-5,-21
2070,2116853896,7,-4,-21
2071,2116857388,7,-5,-21
2072,2116860888,8,-4,-22
2073,2116864376,7,-5,-22
2074,2116867872,8,-4,-22
2075,2116871368,7,-4,-22
2076,2116874864,7,-4,-23
2077,2116878356,7,-5,-23
2078,2116881848,7,-5,-23
2079,2116885340,7,-5,-23
2080,2116888836,7,-5,-23
2081,2116895364,8,-5,-23
2082,2116898856,7,-5,-23
2083,2116902364,8,-5,-23
2084,2116905848,8,-5,-23
2085,2116909340,8,-5,-23
2086,2116912820,7,-5,-23
2087,2116916324,8,-5,-24
2088,2116919812,8,-6,-24
2089,2116923308,8,-6,-25
2090,2116926804,8,-5,-26
2091,2116930300,8,-5,-27
2092,2116933812,8,-5,-29
2093,2116937304,7,-5,-30
2094,2116940808,8,-5,-31
2095,2116944304,7,-5,-32
2096,2116947804,7,-5,-33
2097,2116951296,7,-5,-34
2098,2116954780,6,-5,-34
2099,2116958264,6,-5,-35
2100,2116961748,6,-6,-35
2101,2116968288,6,-5,-37
2102,2116971784,7,-6,-36
2103,2116975284,6,-6,-37
2104,2116978788,6,-6,-37
2105,2116982276,7,-5,-37
2106,2116985772,7,-6,-38
2107,2116989272,7,-6,-38
2108,2116992756,7,-6,-37
2109,2116996260,7,-6,-38
2110,2116999756,7,-6,-38
2111,2117003256,7,-6,-38
2112,2117006752,8,-6,-39
2113,2117010244,8,-6,-39
2114,2117013740,7,-5,-39
2115,2117017232,7,-6,-40
2116,2117020724,7,-6,-41
2117,2117024212,7,-6,-42
2118,2117027696,7,-5,-42
2119,2117031188,7,-5,-44
2120,2117034676,6,-5,-44
2121,2117038172,7,-6,-45
2122,2117044696,6,-6,-47
2123,2117048180,7,-5,-47
2124,2117051668,6,-6,-48
2125,2117055148,6,-5,-49
2126,2117058644,6,-5,-49
2127,2117062120,6,-5,-50
2128,2117065600,6,-5,-50
2129,2117069088,6,-5,-51
2130,2117072572,6,-6,-51
2131,2117076064,6,-6,-51
2132,2117079540,6,-6,-51
2133,2117083020,6,-6,-51
2134,2117086504,7,-6,-51
2135,2117089988,7,-7,-51
2136,2117093472,6,-7,-51
2137,2117096948,6,-6,-52
2138,2117100428,6,-6,-52
2139,2117103908,6,-6,-52
2140,2117107400,6,-6,-52
2141,2117110888,7,-6,-53
2142,2117117424,6,-6,-54
2143,2117120912,6,-7,-54
2144,2117124400,6,-7,-54
2145,2117127884,5,-7,-55
2146,2117131376,5,-7,-55
2147,2117134860,5,-7,-55
2148,2117138344,5,-7,-55
2149,2117141832,5,-7,-56
2150,2117145320,5,-7,-56
2151,2117148816,5,-7,-56
2152,2117152308,5,-6,-55
2153,2117155800,5,-6,-55
2154,2117159296,5,-6,-55
2155,2117162788,5,-6,-54
2156,2117166296,6,-6,-54
2157,2117169788,6,-5,-52
2158,2117173296,6,-5,-52
2159,2117176788,6,-5,-51
2160,2117180292,7,-5,-50
2161,2117183792,7,-4,-49
2162,2117187288,7,-4,-48
2163,2117193984,7,-4,-46
2164,2117197472,7,-4,-45
2165,2117200968,7,-4,-45
2166,2117204456,7,-4,-44
2167,2117207960,7,-4,-43
2168,2117211460,7,-4,-43
2169,2117214948,7,-5,-42
2170,2117218440,7,-4,-41
2171,2117221912,7,-4,-41
2172,2117225412,7,-5,-41
2173,2117228900,8,-5,-41
2174,2117232388,8,-4,-40
2175,2117235900,8,-4,-40
2176,2117239388,8,-4,-40
2177,2117242876,7,-4,-40
2178,2117246368,7,-4,-40
2179,2117249864,8,-4,-40
2180,2117253368,7,-4,-40
2181,2117256860,8,-4,-40
2182,2117260364,7,-4,-40
2183,2117266944,8,-4,-39
2184,2117270440,7,-4,-39
2185,2117273944,7,-4,-39
2186,2117277436,7,-4,-39
2187,2117280944,7,-4,-39
2188,2117284448,7,-4,-39
2189,2117287960,7,-4,-38
2190,2117291456,7,-4,-39
2191,2117294952,8,-4,-39
2192,2117298452,8,-4,-39
2193,2117301944,7,-4,-39
2194,2117305456,7,-4,-38
2195,2117308940,7,-3,-38
2196,2117312440,7,-4,-38
2197,2117315932,7,-3,-38
2198,2117319424,7,-4,-38
2199,2117322904,7,-3,-38
2200,2117326392,7,-3,-37
2201,2117329880,7,-4,-37
2202,2117333368,7,-3,-37
2203,2117336852,7,-4,-36
2204,2117343524,8,-4,-35
2205,2117347016,8,-4,-35
2206,2117350504,8,-3,-35
2207,2117353984,9,-3,-34
2208,2117357468,9,-3,-34
2209,2117360976,9,-2,-34
2210,2117364456,9,-2,-33
2211,2117367948,9,-1,-34
2212,2117371416,9,-1,-33
2213,2117374892,9,-1,-34
2214,2117378372,9,-1,-34
2215,2117381840,9,-1,-34
2216,2117385320,9,-2,-34
2217,2117388800,9,-2,-35
2218,2117392276,8,-2,-35
2219,2117395756,8,-2,-35
2220,2117399236,8,-2,-35
2221,2117402736,8,-3,-35
2222,2117406216,8,-2,-36
2223,2117409688,8,-3,-35
2224,2117416376,8,-3,-35
2225,2117419852,7,-2,-35
2226,2117423336,7,-2,-35
2227,2117426808,7,-3,-34
2228,2117430292,8,-2,-33
2229,2117433764,7,-2,-33
2230,2117437240,7,-2,-32
2231,2117440720,7,-2,-31
2232,2117444192,7,-2,-30
2233,2117447664,7,-2,-29
2234,2117451152,7,-2,-28
2235,2117454620,8,-2,-27
2236,2117458100,8,-2,-26
2237,2117461576,8,-2,-24
2238,2117465048,7,-3,-22
2239,2117468516,8,-2,-22
2240,2117471996,9,-3,-21
2241,2117475480,9,-2,-20
2242,2117478960,9,-2,-19
2243,2117482428,9,-2,-19
2244,2117485904,9,-2,-18
2245,2117492480,9,-2,-18
2246,2117495964,9,-1,-18
2247,2117499432,9,-2,-18
2248,2117502900,9,-1,-19
2249,2117506372,9,-1,-19
2250,2117509840,9,-2,-19
2251,2117513324,9,-2,-19
2252,2117516804,9,-2,-18
2253,2117520284,9,-2,-19
2254,2117523752,9,-2,-19
2255,2117527216,9,-2,-19
2256,2117530700,9,-1,-18
2257,2117534168,9,-1,-17
2258,2117537636,9,-1,-17
2259,2117541112,9,-1,-16
2260,2117544588,9,-1,-15
2261,2117548080,9,-1,-14
2262,2117551548,9,-2,-12
2263,2117555024,9,-2,-12
2264,2117558512,9,-2,-11
2265,2117565100,9,-2,-9
2266,2117568564,9,-2,-8
2267,2117571996,10,-2,-7
2268,2117575464,9,-1,-7
2269,2117578896,9,-1,-5
2270,2117582320,9,-1,-4
2271,2117585784,9,-1,-3
2272,2117589224,9,-1,-2
2273,2117592652,9,-1,-1
2274,2117596092,9,-2,-0
2275,2117599520,10,-2,1
2276,2117602960,10,-2,2
2277,2117606432,10,-2,3
2278,2117609884,10,-2,4
2279,2117613316,10,-2,6
2280,2117616768,10,-2,7
2281,2117620204,11,-2,7
2282,2117623648,10,-2,8
2283,2117627088,11,-2,9
2284,2117630516,11,-2,9
2285,2117633968,11,-3,10
2286,2117640572,11,-3,10
2287,2117644032,11,-2,9
2288,2117647476,11,-3,9
2289,2117650908,11,-2,9
2290,2117654344,11,-2,8
2291,2117657776,11,-2,8
2292,2117661196,11,-2,7
2293,2117664632,11,-2,6
2294,2117668060,11,-2,6
2295,2117671496,11,-2,6
2296,2117674924,11,-2,5
2297,2117678360,10,-2,5
2298,2117681792,11,-2,5
2299,2117685228,10,-3,5
2300,2117688664,10,-3,5
2301,2117692088,10,-3,6
2302,2117695528,10,-3,5
2303,2117698960,11,-3,6
2304,2117702388,11,-3,6
2305,2117705832,11,-3,6
2306,2117709256,11,-3,6
2307,2117712696,11,-3,6
2308,2117719208,11,-4,6
2309,2117722636,10,-4,6
2310,2117726104,11,-4,6
2311,2117729540,10,-4,6
2312,2117732972,11,-5,5
2313,2117736428,10,-5,5
2314,2117739864,10,-5,5
2315,2117743304,10,-5,5
2316,2117746752,10,-5,4
2317,2117750188,10,-5,4
2318,2117753636,10,-6,4
2319,2117757084,10,-6,4
2320,2117760516,10,-6,4
2321,2117763964,10,-6,3
2322,2117767416,10,-7,4
2323,2117770848,10,-7,4
2324,2117774296,10,-7,4
2325,2117777744,10,-7,4
2326,2117781180,10,-8,5
2327,2117784628,10,-8,5
2328,2117788060,10,-8,6
2329,2117794740,11,-9,6
2330,2117798176,11,-9,6
2331,2117801620,11,-9,7
2332,2117805080,11,-9,7
2333,2117808524,11,-10,7
2334,2117811996,11,-10,8
2335,2117815484,11,-11,8
2336,2117818964,11,-11,8
2337,2117822440,11,-12,8
2338,2117825920,11,-11,8
2339,2117829408,11,-12,8
2340,2117832896,11,-13,8
2341,2117836388,11,-12,8
2342,2117839868,11,-12,8
2343,2117843348,11,-12,7
2344,2117846824,11,-12,7
2345,2117850312,11,-13,7
2346,2117853792,11,-12,7
2347,2117857268,11,-12,7
2348,2117860752,11,-12,7
2349,2117864232,10,-12,8
2350,2117870688,10,-11,9
2351,2117874180,11,-11,8
2352,2117877660,11,-12,8
2353,2117881152,11,-12,9
2354,2117884632,11,-12,9
2355,2117888116,12,-13,9
2356,2117891600,11,-14,10
2357,2117895116,12,-15,10
2358,2117898624,12,-16,10
2359,2117902128,12,-17,10
2360,2117905632,13,-18,11
2361,2117909132,13,-20,10
2362,2117912648,13,-21,11
2363,2117916148,14,-23,11
2364,2117919656,14,-24,11
2365,2117923172,15,-25,11
2366,2117926684,15,-27,11
2367,2117930200,15,-27,11
2368,2117933712,15,-28,12
2369,2117940200,15,-29,12
2370,2117943712,15,-29,13
2371,2117947232,15,-29,13
2372,2117950752,14,-29,14
2373,2117954260,14,-29,14
2374,2117957784,12,-29,14
2375,2117961292,9,-31,14
2376,2117964784,8,-27,19
2377,2117968288,10,-27,19
2378,2117971816,12,-27,17
2379,2117975348,14,-26,17
2380,2117978868,15,-26,15
2381,2117982400,16,-26,13
2382,2117985928,16,-28,12
2383,2117989468,16,-29,10
2384,2117992992,16,-29,7
2385,2117996488,16,-30,6
2386,2117999992,16,-30,4
2387,2118003480,16,-29,2
2388,2118006976,17,-29,2
2389,2118013508,16,-29,1
2390,2118016984,15,-29,1
2391,2118020460,15,-28,2
2392,2118023944,14,-28,3
2393,2118027436,13,-28,3
2394,2118030912,13,-28,4
2395,2118034404,13,-28,5
2396,2118037900,12,-28,6
2397,2118041384,12,-28,6
2398,2118044876,12,-28,6
2399,2118048352,12,-27,6
2400,2118051848,13,-27,7
2401,2118055324,13,-27,7
2402,2118058808,13,-27,7
2403,2118062304,12,-27,7
2404,2118065792,13,-26,8
2405,2118069292,12,-27,8
2406,2118072784,12,-26,8
2407,2118076276,12,-25,7
2408,2118079780,12,-25,7
2409,2118083272,12,-24,6
2410,2118089836,12,-23,6
2411,2118093332,12,-23,5
2412,2118096832,12,-23,4
2413,2118100328,11,-22,3
2414,2118103812,11,-22,2
2415,2118107308,11,-22,2
2416,2118110776,10,-22,2
2417,2118114252,10,-22,2
2418,2118117740,10,-22,2
2419,2118121212,10,-22,1
2420,2118124700,10,-22,2
2421,2118128176,10,-22,1
2422,2118131656,10,-22,2
2423,2118135136,10,-22,2
2424,2118138612,10,-22,2
2425,2118142100,10,-22,2
2426,2118145584,10,-21,2
2427,2118149072,10,-21,3
2428,2118152560,10,-21,3
2429,2118156048,11,-21,3
2430,2118162584,11,-21,4
2431,2118166068,11,-21,4
2432,2118169556,10,-21,4
2433,2118173048,10,-21,5
2434,2118176536,11,-20,5
2435,2118180028,10,-20,5
2436,2118183516,10,-20,6
2437,2118187000,10,-20,6
2438,2118190496,10,-20,7
2439,2118193984,10,-20,7
2440,2118197484,10,-19,7
2441,2118200972,10,-18,7
2442,2118204472,10,-18,8
2443,2118207972,10,-17,7
2444,2118211452,9,-17,8
2445,2118214912,9,-17,8
2446,2118218364,9,-17,8
2447,2118221848,9,-17,8
2448,2118225300,8,-17,8
2449,2118228748,8,-17,8
2450,2118232212,9,-17,8
2451,2118238736,8,-17,7
2452,2118242208,9,-18,6
2453,2118245676,9,-18,6
2454,2118249136,9,-19,6
2455,2118252596,9,-19,5
2456,2118256048,9,-20,5
2457,2118259532,10,-20,4
2458,2118263032,10,-19,4
2459,2118266536,10,-20,3
2460,2118270040,10,-19,3
2461,2118273544,10,-19,3
2462,2118277024,9,-20,3
2463,2118280484,9,-19,3
2464,2118283932,9,-19,3
2465,2118287400,9,-18,2
2466,2118290844,8,-17,3
2467,2118294284,9,-16,3
2468,2118297736,8,-16,3
2469,2118301192,8,-15,3
2470,2118304660,8,-15,3
2471,2118308120,8,-15,3
2472,2118314644,7,-15,3
2473,2118318116,7,-15,3
2474,2118321560,6,-15,3
2475,2118325004,6,-15,3
2476,2118328464,5,-15,3
2477,2118331920,6,-16,3
2478,2118335380,6,-16,3
2479,2118338828,5,-17,4
2480,2118342316,6,-17,4
2481,2118345800,7,-18,4
2482,2118349256,7,-18,3
2483,2118352720,8,-18,2
2484,2118356172,8,-19,2
2485,2118359632,9,-19,2
2486,2118363092,9,-18,1
2487,2118366532,9,-19,1
2488,2118369984,9,-18,-0
2489,2118373484,10,-18,0
2490,2118376976,10,-18,-0
2491,2118380488,10,-17,-0
2492,2118384016,10,-17,-0
2493,2118390736,10,-15,-0
2494,2118394248,9,-14,-1
2495,2118397728,9,-13,-0
