loopIteration,time,gyroADC[0],gyroADC[1],gyroADC[2]
0,17651280,0,-1,0
1,17732980,4,-4,1
2,17736308,3,-2,3
3,17739648,5,-4,3
4,17742992,4,-3,2
5,17746320,1,-6,1
6,17749652,1,-4,-0
7,17752984,2,-3,0
8,17756312,3,-1,0
9,17759644,2,-1,0
10,17762972,1,-1,0
11,17766340,-0,-0,0
12,17769700,-0,0,0
13,17773028,0,0,1
14,17776352,1,-0,0
15,17779728,-0,-0,-0
16,17783108,-1,-0,-0
17,17786484,-1,-1,-0
18,17789848,-2,-1,0
19,17793212,-1,-1,1
20,17796564,-1,-1,1
21,17799920,-2,-2,1
22,17803296,-2,-1,0
23,17806652,-2,-1,-0
24,17810020,-1,-1,0
25,17816696,-1,-1,0
26,17820064,-1,-1,-0
27,17823424,-1,-1,0
28,17826796,-1,-1,0
29,17830156,0,-1,0
30,17833500,1,-1,0
31,17836848,0,-1,0
32,17840200,1,-1,0
33,17843528,1,-1,0
34,17846860,2,-1,0
35,17850212,2,-1,0
36,17853564,2,-1,0
37,17856920,2,-1,0
38,17860256,3,-1,0
39,17863616,3,-1,0
40,17866976,3,-0,0
41,17870328,3,-0,1
42,17873688,3,-0,0
43,17877040,3,-0,0
44,17880400,3,-0,0
45,17883768,3,-0,0
46,17887132,3,-0,0
47,17890480,2,-0,0
48,17893824,2,-0,0
49,17897156,2,-0,0
50,17900504,2,-0,0
51,17907188,1,-0,0
52,17910544,1,-0,0
53,17913904,0,-0,0
54,17917248,0,-0,0
55,17920608,-0,0,0
56,17923976,-1,-0,-0
57,17927356,-1,-0,0
58,17930728,-1,-0,-0
59,17934096,-1,-0,-0
60,17937472,-2,-0,0
61,17940844,-2,-0,0
62,17944212,-2,-1,0
63,17947608,-2,-1,-0
64,17950988,-3,-1,0
65,17954360,-3,-1,0
66,17957744,-3,-0,-0
67,17961140,-3,-1,-0
68,17964512,-3,-0,0
69,17967880,-3,-1,0
70,17971260,-3,-1,0
71,17974620,-3,-1,0
72,17977988,-3,-1,0
73,17981364,-3,-1,-0
74,17984760,-3,-0,-0
75,17988128,-2,-0,-0
76,17991520,-2,-0,-0
77,17998096,-2,0,-0
78,18001448,-1,-0,0
79,18004808,-1,0,0
80,18008164,-1,0,0
81,18011504,-0,0,0
82,18014844,0,-0,0
83,18018188,1,-0,0
84,18021540,1,-0,0
85,18024880,1,-0,0
86,18028220,1,-0,0
87,18031548,2,-0,0
88,18034904,2,-0,0
89,18038236,2,-0,0
90,18041588,3,-0,0
91,18044940,3,-0,0
92,18048296,3,0,0
93,18051628,3,0,0
94,18054956,3,0,0
95,18058304,3,-0,1
96,18061644,3,0,1
97,18064980,3,-0,0
98,18068336,3,-0,0
99,18071696,3,-0,0
100,18075052,3,-0,0
101,18078412,3,-0,0
102,18081808,2,-0,0
103,18088372,1,-0,0
104,18091724,2,-0,0
105,18095092,1,-0,0
106,18098464,1,-0,0
107,18101836,0,-0,0
108,18105220,0,-0,0
109,18108608,-0,-0,0
110,18111984,-0,-0,0
111,18115368,-1,-0,0
112,18118756,-1,-0,0
113,18122132,-1,-0,0
114,18125516,-2,-0,-0
115,18128924,-2,-0,0
116,18132320,-2,-0,0
117,18135716,-2,-0,0
118,18139120,-2,-0,0
119,18142512,-2,-0,-0
120,18145912,-2,-0,0
121,18149300,-2,-0,-0
122,18152720,-2,-1,0
123,18156100,-2,-1,0
124,18159476,-2,-0,0
125,18162868,-2,-0,0
126,18166244,-1,-0,0
127,18169624,-1,-0,0
128,18176212,-1,0,0
129,18179576,-0,1,-0
130,18182952,0,1,0
131,18186308,0,1,0
132,18189656,1,1,0
133,18193008,1,0,0
134,18196348,1,0,0
135,18199700,1,0,0
136,18203052,2,-0,0
137,18206412,2,-0,0
138,18209772,2,-0,0
139,18213136,2,-0,0
140,18216500,2,-0,1
141,18219860,2,-0,0
142,18223220,2,0,0
143,18226564,2,0,0
144,18229908,2,-0,0
145,18233260,2,0,0
146,18236604,2,1,-0
147,18239972,2,0,-0
148,18243340,2,0,-0
149,18246708,1,0,0
150,18250048,2,0,0
151,18253412,1,-0,0
152,18256780,1,-0,0
153,18260140,1,-0,0
154,18266588,1,-0,0
155,18269948,0,-0,0
156,18273328,1,0,0
157,18276664,0,1,1
158,18280004,0,1,0
159,18283360,0,1,0
160,18286728,-0,1,-0
161,18290100,-0,1,-0
162,18293484,-0,0,-0
163,18296872,-1,0,0
164,18300236,-1,0,0
165,18303604,-1,-0,0
166,18306996,-2,-1,0
167,18310400,-2,-1,0
168,18313776,-2,-0,0
169,18317148,-2,0,0
170,18320524,-2,0,0
171,18323888,-1,1,-0
172,18327260,-2,0,0
173,18330644,-2,-0,0
174,18334020,-1,0,0
175,18337380,-1,0,-0
176,18340752,-1,0,-0
177,18344152,-1,-0,-0
178,18347552,-1,-0,0
179,18354056,-1,-0,0
180,18357428,-1,-0,0
181,18360812,-0,0,0
182,18364176,-0,0,0
183,18367544,0,0,0
184,18370896,0,0,0
185,18374252,0,-0,0
186,18377628,1,0,0
187,18380984,1,0,0
188,18384336,1,0,0
189,18387676,1,0,0
190,18391044,1,-0,0
191,18394412,1,-0,0
192,18397776,1,-0,0
193,18401132,1,-0,0
194,18404496,1,-0,0
195,18407852,2,0,0
196,18411204,2,-0,0
197,18414568,1,-0,0
198,18417928,2,0,0
199,18421268,2,-0,0
200,18424624,1,0,0
201,18427976,1,0,0
202,18431324,1,0,0
203,18434676,1,-0,0
204,18438048,1,-0,0
205,18444636,1,-0,0
206,18448004,0,-0,0
207,18451384,0,-0,0
208,18454756,0,-0,0
209,18458128,-0,0,0
210,18461516,-0,-0,0
211,18464908,-0,-0,-0
212,18468300,-0,0,0
213,18471676,-0,0,0
214,18475060,-1,0,-0
215,18478460,-1,-0,0
216,18481836,-1,-0,0
217,18485224,-1,-0,0
218,18488608,-1,-0,0
219,18492000,-1,-0,0
220,18495400,-1,-0,0
221,18498780,-1,-0,0
222,18502160,-1,-0,0
223,18505544,-1,0,0
224,18508920,-0,0,0
225,18512292,-1,0,-0
226,18515676,-1,0,0
227,18519052,-1,0,0
228,18522420,-1,-0,0
229,18525804,-0,-0,0
230,18532420,-0,-0,0
231,18535808,-0,-0,0
232,18539196,0,-0,0
233,18542564,0,-0,0
234,18545936,0,0,0
235,18549276,0,0,0
236,18552636,0,0,0
237,18555992,1,0,0
238,18559344,1,-0,0
239,18562716,1,-0,0
240,18566080,1,-0,0
241,18569456,1,-0,0
242,18572820,1,0,0
243,18576184,1,-0,0
244,18579564,1,-0,0
245,18582924,1,-0,0
246,18586288,1,-0,0
247,18589652,1,0,0
248,18593012,1,0,0
249,18596372,0,-0,0
250,18599752,1,0,0
251,18603116,0,-0,0
252,18606476,0,-0,0
253,18609844,1,-0,0
254,18613216,0,-0,0
255,18616592,0,-0,0
256,18623144,0,-0,0
257,18626516,0,-0,0
258,18629904,0,-0,0
259,18633272,-0,0,0
260,18636644,-0,0,0
261,18640028,-0,-0,0
262,18643404,-0,-0,0
263,18646792,-0,-0,0
264,18650188,-0,-0,-0
265,18653600,-1,-0,0
266,18656972,-0,0,0
267,18660344,-0,-0,0
268,18663740,-0,-0,0
269,18667116,-0,-0,0
270,18670504,-0,-0,0
271,18673904,0,0,0
272,18677268,-0,-0,0
273,18680648,-0,0,0
274,18684040,-0,-0,0
275,18687432,0,-0,0
276,18690800,-0,-0,0
277,18694200,0,-0,0
278,18697576,0,-0,0
279,18700944,0,-0,0
280,18704308,0,-0,0
281,18710860,0,-0,0
282,18714224,0,-0,0
283,18717584,1,0,0
284,18720956,1,-0,0
285,18724336,0,-0,0
286,18727704,1,-0,0
287,18731080,1,-0,0
288,18734436,1,0,0
289,18737796,1,-0,0
290,18741172,1,-0,0
291,18744548,0,-0,0
292,18747916,0,-0,0
293,18751280,0,-0,0
294,18754660,1,-0,0
295,18758012,1,0,0
296,18761364,0,-0,0
297,18764724,0,0,0
298,18768096,0,-0,0
299,18771468,0,-0,0
300,18774844,0,-0,0
301,18778224,0,0,0
302,18781568,-0,0,0
303,18784940,0,-0,0
304,18788324,-0,-0,0
305,18791712,-0,-0,0
306,18795104,-0,-0,0
307,18801716,-0,-0,0
308,18805104,-0,0,0
309,18808484,-0,-0,0
310,18811872,-0,-0,0
311,18815264,-0,0,0
312,18818656,-0,-0,-0
313,18822064,-0,-0,0
314,18825448,-0,-0,0
315,18828828,-0,-0,0
316,18832208,-0,-0,0
317,18835612,-0,-0,0
318,18838992,0,0,0
319,18842356,-0,0,0
320,18845740,-0,-0,0
321,18849120,-0,-0,0
322,18852500,0,-0,0
323,18855872,0,-0,0
324,18859244,0,0,0
325,18862584,0,0,0
326,18865936,0,-0,0
327,18869308,0,-0,0
328,18872672,0,-0,0
329,18876040,0,-0,0
330,18879408,1,0,0
331,18882780,1,-0,0
332,18889360,0,-0,0
333,18892732,0,-0,0
334,18896096,1,-0,0
335,18899456,0,0,0
336,18902808,0,-0,0
337,18906188,0,-0,0
338,18909560,0,-0,0
339,18912920,0,-0,0
340,18916296,0,-0,0
341,18919664,0,-0,0
342,18923028,0,0,0
343,18926392,0,-0,0
344,18929780,0,-0,0
345,18933156,0,-0,0
346,18936516,0,-0,0
347,18939892,-0,0,0
348,18943260,0,-0,0
349,18946616,0,0,0
350,18949972,0,0,0
351,18953348,-0,-0,0
352,18956728,-0,-0,0
353,18960132,-0,-0,0
354,18963508,0,0,0
355,18966872,-0,-0,0
356,18970268,-0,-0,0
357,18976724,-0,-0,0
358,18980124,0,-0,0
359,18983508,0,-0,0
360,18986884,-0,-0,0
361,18990272,-0,0,0
362,18993652,-0,-0,0
363,18997036,-0,-0,0
364,19000436,-0,-0,0
365,19003824,-0,0,0
366,19007180,0,0,0
367,19010548,0,-0,0
368,19013928,-0,-0,0
369,19017316,0,-0,0
370,19020680,-0,-0,0
371,19024076,0,0,0
372,19027424,0,-0,0
373,19030788,0,-0,0
374,19034164,0,-0,0
375,19037528,0,-0,0
376,19040888,0,-0,0
377,19044252,0,-0,0
378,19047624,0,-0,0
379,19051000,0,-0,0
380,19054372,0,0,0
381,19057740,0,-0,0
382,19061104,0,-0,0
383,19067572,0,0,0
384,19070944,-0,0,0
385,19074308,0,0,0
386,19077656,0,-0,0
387,19081032,0,-0,0
388,19084416,0,-0,0
389,19087792,-0,0,0
390,19091152,0,-0,0
391,19094524,0,-0,0
392,19097892,0,-0,0
393,19101276,0,-0,0
394,19104660,0,-0,0
395,19108028,0,-0,0
396,19111400,0,-0,0
397,19114772,0,-0,0
398,19118156,0,-0,0
399,19121536,0,-0,0
400,19124908,-0,-0,0
401,19128292,0,-0,0
402,19131676,0,-0,0
403,19135052,0,-0,0
404,19138428,-0,-0,0
405,19141816,0,-0,0
406,19145192,-0,-0,0
407,19148564,0,-0,0
408,19155132,0,0,0
409,19158492,0,-0,0
410,19161856,0,-0,0
411,19165232,0,-0,0
412,19168596,0,-0,0
413,19171960,0,-0,0
414,19175316,0,0,0
415,19178672,0,0,0
416,19182016,0,-0,0
417,19185388,0,-0,0
418,19188756,0,0,0
419,19192120,0,0,0
420,19195472,0,0,0
421,19198832,0,-0,0
422,19202212,0,-0,0
423,19205572,0,-0,0
424,19208932,0,-0,0
425,19212320,0,0,0
426,19215664,0,-0,0
427,19219040,0,-0,0
428,19222408,0,-0,0
429,19225800,0,-0,0
430,19229168,0,-0,0
431,19232548,0,-0,0
432,19235928,0,-0,0
433,19239296,0,-0,0
434,19245880,-0,-0,0
435,19249272,0,-0,0
436,19252652,-0,-0,0
437,19256040,0,-0,0
438,19259416,0,0,0
439,19262784,-0,-0,0
440,19266172,-0,-0,0
441,19269560,0,-0,0
442,19272936,-0,-0,0
443,19276336,0,-0,0
444,19279712,-0,-0,0
445,19283112,0,-0,0
446,19286476,-0,-0,0
447,19289864,-0,-0,0
448,19293256,0,-0,0
449,19296636,0,-0,0
450,19300008,0,0,0
451,19303384,0,-0,0
452,19306772,-0,-0,0
453,19310164,0,-0,0
454,19313544,-0,-0,0
455,19316924,0,-0,0
456,19320304,-0,-0,0
457,19323684,-0,-0,0
458,19327068,0,-0,0
459,19333636,-0,-0,0
460,19337028,0,-0,0
461,19340412,0,-0,0
462,19343780,0,-0,0
463,19347144,0,-0,0
464,19350536,0,-0,0
465,19353904,0,-0,0
466,19357288,0,-0,0
467,19360656,0,-0,0
468,19364028,0,-0,0
469,19367388,0,-0,0
470,19370756,0,-0,0
471,19374128,0,-0,0
472,19377484,0,-0,0
473,19380856,0,-0,0
474,19384220,0,-0,0
475,19387592,0,-0,0
476,19390968,0,-0,0
477,19394332,0,-0,0
478,19397708,0,-0,0
479,19401080,0,-0,0
480,19404456,-0,-0,0
481,19407848,0,-0,0
482,19411240,0,-0,-0
483,19414616,0,-0,0
484,19417976,0,-0,0
485,19424552,0,-0,0
486,19427920,0,-0,0
487,19431304,0,-0,0
488,19434692,0,0,0
489,19438064,0,-0,0
490,19441428,0,-0,0
491,19444816,0,-0,0
492,19448188,0,-0,0
493,19451564,0,-0,0
494,19454924,0,0,0
495,19458296,0,-0,0
496,19461652,0,0,0
497,19465000,0,-0,0
498,19468376,0,-0,0
499,19471740,0,-0,0
500,19475112,0,-0,0
501,19478484,0,0,0
502,19481848,0,0,0
503,19485200,0,0,0
504,19488556,0,-0,0
505,19491952,0,-0,0
506,19495316,0,-0,0
507,19498676,0,-0,0
508,19502044,0,0,0
509,19505404,0,-0,0
510,19508768,0,-0,0
511,19515348,0,-0,0
512,19518724,0,-0,0
513,19522096,0,-0,0
514,19525464,0,0,0
515,19528852,0,-0,-0
516,19532224,0,-0,0
517,19535596,-0,-0,0
518,19539004,0,-0,0
519,19542380,-0,-0,0
520,19545768,0,0,0
521,19549132,0,0,0
522,19552488,0,-0,0
523,19555860,-0,-0,0
524,19559240,0,-0,0
525,19562620,0,0,0
526,19565980,-0,0,0
527,19569348,0,-0,0
528,19572732,0,-0,0
529,19576104,-0,-0,0
530,19579500,-0,-0,0
531,19582884,0,0,0
532,19586244,0,-0,0
533,19589624,0,-0,0
534,19592996,-0,-0,0
535,19596384,-0,-0,0
536,19602976,0,-0,0
537,19606352,0,0,0
538,19609724,0,-0,0
539,19613092,0,-0,0
540,19616460,0,-0,0
541,19619832,0,0,0
542,19623200,0,0,0
543,19626544,0,0,0
544,19629904,0,0,0
545,19633276,0,-0,0
546,19636656,0,-0,0
547,19640016,0,-0,0
548,19643384,0,-0,0
549,19646756,0,-0,0
550,19650132,0,-0,0
551,19653508,0,-0,0
552,19656880,0,-0,0
553,19660252,0,-0,0
554,19663616,0,-0,0
555,19666996,0,-0,0
556,19670344,0,0,0
557,19673700,0,-0,0
558,19677080,0,-0,0
559,19680444,0,-0,0
560,19683808,0,0,0
561,19687156,0,0,0
562,19693604,0,0,0
563,19696964,0,-0,0
564,19700332,0,-0,0
565,19703704,0,-0,0
566,19707080,0,-0,0
567,19710444,0,-0,0
568,19713804,0,0,0
569,19717176,0,-0,0
570,19720540,0,-0,0
571,19723908,0,-0,0
572,19727280,-0,-0,0
573,19730664,0,0,0
574,19734032,-0,0,0
575,19737404,0,-0,0
576,19740792,-0,-0,0
577,19744160,0,-0,0
578,19747528,0,0,0
579,19750904,0,-0,0
580,19754268,0,0,0
581,19757624,0,-0,0
582,19761000,-0,-0,0
583,19764388,0,-0,0
584,19767760,0,-0,0
585,19771144,-0,-0,0
586,19774536,0,0,0
587,19777880,0,-0,0
588,19784352,0,-0,0
589,19787748,0,-0,0
590,19791124,-0,-0,0
591,19794500,0,0,0
592,19797872,0,-0,0
593,19801260,0,-0,0
594,19804628,0,-0,0
595,19807996,0,-0,0
596,19811372,0,0,0
597,19814732,0,0,0
598,19818080,0,0,0
599,19821448,0,-0,0
600,19824832,0,-0,0
601,19828208,-0,-0,0
602,19831600,0,-0,0
603,19834988,-0,-0,-0
604,19838372,0,-0,0
605,19841760,0,-0,0
606,19845136,0,-0,0
607,19848516,-0,-0,0
608,19851896,-0,0,0
609,19855284,0,-0,0
610,19858652,0,-0,0
611,19862024,0,-0,0
612,19865392,0,0,0
613,19868764,-0,-0,0
614,19875328,0,-0,0
615,19878692,0,-0,0
616,19882076,0,-0,0
617,19885436,0,-0,0
618,19888808,0,-0,0
619,19892188,0,-0,0
620,19895556,0,-0,0
621,19898928,0,-0,0
622,19902300,0,-0,0
623,19905672,0,-0,0
624,19909036,0,-0,0
625,19912408,0,-0,0
626,19915792,0,-0,0
627,19919156,0,-0,0
628,19922536,0,-0,0
629,19925916,0,-0,0
630,19929292,0,-0,0
631,19932660,0,-0,0
632,19936024,0,-0,0
633,19939400,0,-0,0
634,19942768,0,-0,0
635,19946132,0,-0,0
636,19949512,0,-0,0
637,19952888,0,-0,0
638,19956256,1,0,0
639,19962824,0,0,0
640,19966184,0,-0,0
641,19969540,0,0,0
642,19972900,0,-0,0
643,19976272,0,0,0
644,19979628,0,0,0
645,19982976,0,0,0
646,19986332,0,-0,0
647,19989712,0,-0,-0
648,19993096,0,-0,0
649,19996480,0,-0,0
650,19999880,0,-0,0
651,20003248,0,-0,0
652,20006616,-0,-0,0
653,20010020,-0,-0,0
654,20013412,0,-0,0
655,20016776,0,-0,0
656,20020164,-0,-0,0
657,20023556,-0,0,-0
658,20026940,-0,-0,0
659,20030324,-0,-0,0
660,20033724,-0,-0,0
661,20037116,-0,-0,0
662,20040520,-0,0,0
663,20043896,-0,0,0
664,20047268,-0,-0,0
665,20053824,-0,-0,0
666,20057224,-0,-0,0
667,20060600,-0,-0,0
668,20063972,-0,-0,0
669,20067356,-0,0,0
670,20070728,-0,-0,0
671,20074104,-0,-0,0
672,20077492,-0,0,-0
673,20080876,-0,0,0
674,20084248,-0,0,0
675,20087620,0,0,0
676,20091004,-0,-0,0
677,20094384,-0,-0,0
678,20097764,-0,-0,0
679,20101168,0,-0,0
680,20104540,0,-0,0
681,20107920,0,-0,0
682,20111292,0,-0,0
683,20114668,0,-0,0
684,20118032,0,-0,0
685,20121408,0,-0,0
686,20124788,0,-0,0
687,20128144,0,0,0
688,20131500,0,-0,0
689,20134872,0,-0,0
690,20141444,0,-0,0
691,20144796,0,0,0
692,20148152,0,-0,0
693,20151524,0,-0,0
694,20154892,0,-0,0
695,20158256,0,-0,0
696,20161632,0,-0,0
697,20164996,0,-0,0
698,20168364,1,-0,0
699,20171740,0,-0,0
700,20175112,1,-0,0
701,20178480,1,0,0
702,20181856,0,0,-0
703,20185244,0,-0,-0
704,20188632,-0,-1,-0
705,20192028,-1,-1,-0
706,20195460,-3,-1,-0
707,20198860,-3,0,0
708,20202236,-4,1,0
709,20205648,-3,1,0
710,20209048,-4,0,-0
711,20212444,-5,-1,-0
712,20215884,-8,-0,-4
713,20219316,-9,-2,-12
714,20222740,-9,-2,-13
715,20229412,-7,-2,-11
716,20232852,-12,-3,-12
717,20236336,-14,-3,-13
718,20239796,-11,-3,-12
719,20243236,-8,-2,-13
720,20246672,-7,-2,-14
721,20250108,-9,-2,-15
722,20253552,-12,-2,-16
723,20257020,-11,-1,-15
724,20260488,-7,-0,-14
725,20263928,-5,-0,-13
726,20267360,-5,-0,-12
727,20270784,-5,0,-10
728,20274200,-5,1,-8
729,20277588,-4,1,-6
730,20280956,-1,1,-4
731,20284332,1,1,-2
732,20287688,1,1,-0
733,20291036,1,1,2
734,20294388,1,1,4
735,20297744,2,0,4
736,20301112,4,-0,4
737,20304500,5,-1,3
738,20311100,7,-1,1
739,20314464,7,-1,0
740,20317824,9,-1,0
741,20321192,10,-1,1
742,20324580,11,-0,2
743,20327964,11,-0,2
744,20331348,11,-0,2
745,20334724,12,0,2
746,20338084,13,0,1
747,20341456,13,0,1
748,20344848,13,0,0
749,20348240,13,-0,0
750,20351632,12,-0,1
751,20355036,11,-0,1
752,20358432,11,-0,2
753,20361828,11,-1,2
754,20365216,10,-1,1
755,20368596,9,-1,1
756,20371976,8,-1,1
757,20375356,8,-0,1
758,20378752,7,-0,1
759,20382136,6,-0,1
760,20385528,5,-0,1
761,20388920,4,0,0
762,20392292,4,0,0
763,20398700,2,0,0
764,20402080,1,0,0
765,20405460,-0,-0,0
766,20408852,-1,-0,0
767,20412272,-2,-0,0
768,20415684,-3,-0,0
769,20419088,-3,-0,-0
770,20422524,-4,-0,-0
771,20425960,-5,-0,-0
772,20429380,-5,0,-0
773,20432772,-6,0,-0
774,20436168,-6,0,0
775,20439548,-6,0,-0
776,20442948,-6,-0,-0
777,20446372,-7,-0,-0
778,20449780,-7,-0,-0
779,20453192,-6,-0,-0
780,20456620,-6,-0,-0
781,20460040,-6,-0,-0
782,20463444,-5,-0,-0
783,20466868,-5,-0,-0
784,20470268,-5,-0,-0
785,20473664,-4,-0,-0
786,20477076,-4,0,-0
787,20483496,-3,0,0
788,20486864,-2,-0,0
789,20490248,-2,-0,0
790,20493604,-1,-0,0
791,20496984,-0,-0,0
792,20500360,0,-0,0
793,20503732,1,-0,0
794,20507080,2,-0,0
795,20510444,2,-0,1
796,20513820,3,-0,0
797,20517148,3,0,1
798,20520488,3,0,0
799,20523836,4,0,0
800,20527172,4,-0,1
801,20530544,4,-0,0
802,20533916,4,-0,0
803,20537284,4,-0,1
804,20540664,5,-0,1
805,20544028,4,-0,1
806,20547400,4,-0,1
807,20550784,4,-0,0
808,20554148,4,-0,0
809,20557508,4,0,0
810,20560868,3,0,0
811,20564228,3,0,1
812,20567584,2,0,0
813,20579152,1,0,0
814,20582536,0,-0,0
815,20585908,-0,0,0
816,20589284,-1,-0,0
817,20592676,-1,-0,0
818,20596060,-2,0,-0
819,20599452,-2,-0,-0
820,20602860,-3,-0,-0
821,20606288,-3,0,-0
822,20609676,-4,0,-0
823,20613080,-4,-0,-0
824,20616504,-4,0,-0
825,20619896,-4,0,-0
826,20623300,-4,-0,0
827,20626704,-4,-0,-0
828,20630124,-5,-0,-0
829,20633536,-4,-0,-0
830,20636940,-4,-0,0
831,20640332,-4,-0,0
832,20643724,-4,-0,0
833,20647112,-4,-0,0
834,20650496,-3,-0,0
835,20653884,-3,-0,0
836,20657268,-3,-0,0
837,20663840,-2,-0,0
838,20667212,-1,0,1
839,20670588,-0,-0,1
840,20673960,0,-0,1
841,20677320,1,-0,1
842,20680668,2,-0,1
843,20684016,2,0,1
844,20687360,3,-0,1
845,20690720,3,0,1
846,20694084,4,-0,1
847,20697456,4,-0,1
848,20700820,5,-0,1
849,20704192,5,-0,0
850,20707564,6,-0,0
851,20710936,6,-0,0
852,20714312,6,-0,0
853,20717708,6,-0,0
854,20721088,5,-0,0
855,20724460,5,0,0
856,20727828,5,-0,0
857,20731196,5,0,0
858,20734568,4,-0,-0
859,20737956,3,-0,-0
860,20741372,3,-0,-0
861,20744784,3,-0,-0
862,20748160,2,0,0
863,20754708,0,0,1
864,20758056,-0,0,1
865,20761440,-1,-0,1
866,20764832,-1,-0,0
867,20768232,-2,-0,-0
868,20771636,-2,-0,-0
869,20775048,-2,0,-0
870,20778432,-3,0,0
871,20781812,-3,0,0
872,20785204,-3,0,0
873,20788584,-3,0,0
874,20791972,-3,-0,-0
875,20795380,-3,0,-0
876,20798776,-3,-0,-1
877,20802172,-3,0,-0
878,20805556,-3,0,-0
879,20808940,-3,0,0
880,20812316,-3,0,0
881,20815704,-3,0,-0
882,20819132,-3,-0,-0
883,20822532,-2,0,-0
884,20825932,-2,0,-0
885,20829328,-2,-0,-0
886,20832724,-2,0,0
887,20839304,-1,-0,0
888,20842684,-1,-0,0
889,20846072,-1,-0,0
890,20849464,-1,-0,0
891,20852848,-0,-0,0
892,20856220,-0,-0,0
893,20859592,0,-0,0
894,20862956,0,-0,0
895,20866308,1,0,0
896,20869632,1,0,0
897,20872972,1,0,0
898,20876312,2,0,0
899,20879660,2,-0,0
900,20883024,2,-0,0
901,20886396,2,0,0
902,20889752,3,0,0
903,20893100,3,0,0
904,20896464,3,-0,0
905,20899832,3,-0,0
906,20903216,3,-0,0
907,20906600,3,0,0
908,20909956,3,0,0
909,20913316,4,0,0
910,20916660,4,0,0
911,20920024,3,0,0
912,20923408,3,-0,-0
913,20930012,2,-1,-1
914,20933392,2,-0,-1
915,20936788,1,-0,-0
916,20940192,-1,0,-0
917,20943576,-3,0,-1
918,20946996,-3,0,-1
919,20950392,-4,0,-1
920,20953792,-5,-0,-1
921,20957224,-6,-0,-1
922,20960648,-7,-1,-1
923,20964060,-8,-1,-0
924,20967484,-8,-1,0
925,20970876,-8,-1,0
926,20974276,-8,-1,0
927,20977692,-8,-1,-0
928,20981084,-8,-1,-0
929,20984476,-7,-2,-0
930,20987872,-6,-2,-0
931,20991268,-5,-1,-0
932,20994660,-4,-1,-1
933,20998064,-3,-1,-0
934,21001460,-2,-2,-1
935,21004848,-1,-2,-1
936,21008224,0,-2,-1
937,21014804,2,-2,-1
938,21018188,3,-1,-2
939,21021584,5,1,-2
940,21024964,7,3,-2
941,21028340,8,4,-2
942,21031720,10,5,-2
943,21035112,11,5,-2
944,21038508,12,3,-2
945,21041916,12,1,-2
946,21045316,12,-1,-1
947,21048736,13,-2,-0
948,21052148,12,-3,1
949,21055556,12,-4,2
950,21058964,13,-4,3
951,21062364,13,-3,4
952,21065788,14,-2,5
953,21069180,14,-1,6
954,21072568,14,-1,6
955,21075980,14,-1,7
956,21079384,14,-0,7
957,21082780,14,0,7
958,21086164,14,1,7
959,21089544,14,0,6
960,21092924,13,-0,5
961,21096336,13,-0,5
962,21106016,9,-2,4
963,21109392,7,-2,4
964,21112776,6,-2,4
965,21116168,6,-1,3
966,21119552,6,-0,3
967,21122944,5,0,3
968,21126308,3,0,3
969,21129672,3,0,3
970,21133036,3,1,4
971,21136424,3,1,4
972,21139784,3,1,5
973,21143156,2,1,5
974,21146524,2,1,6
975,21149892,2,1,6
976,21153256,3,1,7
977,21156620,3,2,7
978,21159992,3,2,7
979,21163364,2,2,7
980,21166712,2,2,7
981,21170076,2,2,7
982,21173436,1,2,7
983,21176796,0,2,7
984,21180160,-0,2,6
985,21183552,-1,1,7
986,21186928,-1,2,6
987,21190304,-1,2,6
988,21197716,0,2,7
989,21201092,0,2,8
990,21204468,0,2,9
991,21207832,1,2,9
992,21211192,1,2,9
993,21214536,2,2,10
994,21217900,1,2,10
995,21221260,1,2,10
996,21224632,2,2,10
997,21228004,2,2,10
998,21231368,1,1,10
999,21234752,2,2,10
1000,21238120,2,1,10
1001,21241504,1,1,10
1002,21244892,2,0,10
1003,21248308,2,0,10
1004,21251728,2,-0,10
1005,21255160,2,-0,10
1006,21258600,3,-0,10
1007,21262040,3,-0,10
1008,21265464,3,-0,9
1009,21268876,4,-0,9
1010,21272276,4,-1,9
1011,21275696,4,-2,9
1012,21279088,5,-2,8
1013,21286924,5,-3,8
1014,21290336,3,-4,8
1015,21293748,3,-4,8
1016,21297160,3,-4,7
1017,21300568,3,-4,8
1018,21303968,2,-3,8
1019,21307364,1,-3,8
1020,21310776,-0,-3,9
1021,21314212,-1,-3,9
1022,21317648,-1,-3,10
1023,21321092,-3,-2,10
1024,21324520,-4,-2,10
1025,21327984,-5,-1,11
1026,21331424,-6,-1,11
1027,21334864,-7,-1,12
1028,21338332,-8,-1,12
1029,21341764,-9,-1,12
1030,21345220,-9,-0,12
1031,21348676,-10,-1,12
1032,21352140,-11,-1,11
1033,21355604,-10,-2,11
1034,21359064,-10,-2,11
1035,21362548,-10,-3,11
1036,21369392,-9,-3,10
1037,21372836,-8,-3,10
1038,21376292,-7,-4,10
1039,21379740,-7,-4,10
1040,21383184,-5,-4,9
1041,21386612,-5,-4,9
1042,21390044,-4,-4,9
1043,21393472,-3,-5,9
1044,21396900,-2,-6,9
1045,21400320,-2,-7,8
1046,21403744,-2,-8,8
1047,21407152,-1,-8,8
1048,21410572,-0,-9,8
1049,21414008,0,-10,7
1050,21417416,1,-11,7
1051,21420820,2,-11,6
1052,21424248,2,-12,6
1053,21427672,2,-12,6
1054,21431104,3,-12,5
1055,21434536,2,-12,5
1056,21437960,2,-12,5
1057,21441400,2,-12,5
1058,21444824,3,-12,5
1059,21451444,3,-11,6
1060,21454892,3,-10,6
1061,21458316,3,-10,6
1062,21461760,3,-9,7
1063,21465180,3,-8,7
1064,21468600,3,-7,7
1065,21472012,3,-6,8
1066,21475436,2,-5,8
1067,21478848,2,-4,8
1068,21482252,2,-3,9
1069,21485648,1,-1,9
1070,21489044,1,0,9
1071,21492420,0,1,9
1072,21495808,0,3,9
1073,21499192,1,4,8
1074,21502564,1,5,8
1075,21505948,1,6,8
1076,21509332,0,7,8
1077,21512700,1,7,8
1078,21516080,2,8,8
1079,21519464,2,8,7
1080,21522848,2,8,7
1081,21526216,2,8,6
1082,21529616,2,8,6
1083,21533004,3,8,6
1084,21539572,3,7,5
1085,21542972,3,7,4
1086,21546348,3,7,3
1087,21549728,3,7,3
1088,21553116,3,7,3
1089,21556504,2,7,3
1090,21559876,1,7,2
1091,21563248,1,6,2
1092,21566612,1,5,1
1093,21569992,1,4,1
1094,21573364,1,3,0
1095,21576748,1,3,-0
1096,21580132,1,3,-0
1097,21583496,2,2,-1
1098,21586884,3,1,-1
1099,21590272,2,1,-2
1100,21593652,3,0,-2
1101,21597064,3,0,-3
1102,21600468,3,-0,-3
1103,21603888,2,-0,-3
1104,21607320,2,-0,-4
1105,21610740,3,0,-4
1106,21614144,3,0,-4
1107,21617544,3,1,-5
1108,21624172,2,3,-6
1109,21627564,2,4,-6
1110,21630968,2,5,-6
1111,21634380,2,6,-7
1112,21637780,1,6,-7
1113,21641180,1,7,-8
1114,21644596,0,7,-8
1115,21648004,0,8,-8
1116,21651428,0,9,-8
1117,21654840,-1,9,-9
1118,21658252,-1,9,-9
1119,21661680,-1,10,-9
1120,21665140,-1,10,-9
1121,21668592,-2,9,-9
1122,21672060,-2,9,-9
1123,21675508,-2,8,-10
1124,21678984,-2,8,-10
1125,21682460,-2,7,-10
1126,21685912,-2,7,-10
1127,21689392,-3,8,-10
1128,21692860,-3,8,-11
1129,21696328,-3,10,-11
1130,21699820,-4,10,-11
1131,21703304,-5,11,-11
1132,21709996,-8,13,-10
1133,21713480,-8,14,-10
1134,21716968,-8,14,-9
1135,21720436,-9,14,-9
1136,21723896,-9,14,-8
1137,21727376,-10,13,-7
1138,21730856,-10,13,-7
1139,21734348,-9,12,-6
1140,21737828,-9,12,-5
1141,21741296,-9,11,-4
1142,21744780,-9,10,-3
1143,21748248,-9,10,-3
1144,21751708,-9,9,-2
1145,21755172,-10,9,-2
1146,21758624,-10,8,-1
1147,21762096,-10,8,-1
1148,21765560,-11,8,-1
1149,21769004,-12,6,-0
1150,21772460,-11,6,-0
1151,21775908,-10,5,-0
1152,21779360,-10,4,-0
1153,21782804,-9,3,0
1154,21789276,-8,-0,1
1155,21792680,-6,-2,1
1156,21796088,-5,-4,2
1157,21799508,-3,-5,2
1158,21802916,-2,-7,3
1159,21806328,0,-10,3
1160,21809748,2,-13,3
1161,21813180,3,-15,4
1162,21816632,5,-17,3
1163,21820056,7,-19,4
1164,21823488,8,-21,4
1165,21826920,10,-23,4
1166,21830364,11,-25,5
1167,21833816,12,-27,5
1168,21837268,13,-29,5
1169,21840712,13,-30,5
1170,21844168,14,-30,5
1171,21847616,15,-31,5
1172,21851076,15,-31,5
1173,21854528,15,-32,5
1174,21857980,16,-32,5
1175,21861440,15,-32,5
1176,21867932,14,-32,4
1177,21871384,14,-31,4
1178,21874852,14,-30,4
1179,21878316,13,-28,4
1180,21881768,13,-27,3
1181,21885232,12,-26,3
1182,21888692,11,-25,3
1183,21892160,10,-24,3
1184,21895612,9,-22,3
1185,21899064,8,-21,3
1186,21902524,7,-19,3
1187,21905968,7,-17,3
1188,21909408,6,-15,3
1189,21912856,5,-13,3
1190,21916292,5,-11,3
1191,21919728,3,-10,3
1192,21923156,3,-8,3
1193,21926568,2,-6,4
1194,21930000,1,-4,3
1195,21933420,0,-2,3
1196,21936828,-1,-1,4
1197,21940260,-1,1,4
1198,21943672,-1,3,4
1199,21947092,-1,5,5
1200,21953712,-1,8,7
1201,21957116,-0,9,9
1202,21960540,0,11,11
1203,21963984,1,12,12
1204,21967408,1,13,14
1205,21970836,1,14,15
1206,21974264,1,15,16
1207,21977720,2,16,17
1208,21981140,2,17,18
1209,21984576,1,18,19
1210,21988016,1,19,20
1211,21991448,0,20,20
1212,21994860,0,21,22
1213,21998296,-0,22,22
1214,22001740,-1,21,23
1215,22005164,-2,22,24
1216,22008612,-3,22,24
1217,22012064,-3,23,24
1218,22015532,-3,24,25
1219,22018980,-4,24,25
1220,22022456,-5,24,24
1221,22025908,-5,25,24
1222,22029368,-4,23,24
1223,22036032,-5,22,22
1224,22039488,-6,22,21
1225,22042940,-6,21,20
1226,22046380,-5,20,19
1227,22049836,-5,19,18
1228,22053280,-6,18,17
1229,22056724,-6,17,16
1230,22060172,-6,16,15
1231,22063612,-6,15,14
1232,22067052,-6,14,14
1233,22070504,-6,12,13
1234,22073940,-7,11,12
1235,22077380,-7,9,12
1236,22080804,-7,8,11
1237,22084224,-6,6,10
1238,22087644,-6,4,9
1239,22091048,-6,2,8
1240,22094448,-6,0,7
1241,22097844,-6,-1,6
1242,22101264,-6,-4,5
1243,22104696,-6,-4,4
1244,22108108,-5,-5,3
1245,22114720,-5,-8,1
1246,22118140,-5,-9,1
1247,22121572,-5,-10,0
1248,22125008,-5,-11,-0
1249,22128472,-5,-11,-0
1250,22131920,-5,-11,-1
1251,22135376,-5,-11,-1
1252,22138852,-4,-11,-1
1253,22142320,-4,-10,-1
1254,22145792,-4,-10,-1
1255,22149260,-4,-10,-1
1256,22152732,-4,-10,-2
1257,22156212,-4,-10,-2
1258,22159676,-4,-10,-3
1259,22163144,-4,-9,-3
1260,22166612,-5,-9,-4
1261,22170064,-5,-9,-5
1262,22173520,-6,-9,-6
1263,22176980,-5,-8,-6
1264,22180436,-3,-5,-5
1265,22183888,-3,-3,-4
1266,22187360,-3,-1,-2
1267,22193972,-2,1,-1
1268,22197384,-1,1,-0
1269,22200760,-1,2,1
1270,22204132,0,2,2
1271,22207524,0,3,2
1272,22210896,0,3,2
1273,22214256,1,2,3
1274,22217628,2,2,3
1275,22221016,3,2,3
1276,22224404,3,2,2
1277,22227772,3,2,2
1278,22231164,3,2,1
1279,22234528,4,3,1
1280,22237908,5,-1,1
1281,22241308,4,-0,1
1282,22244688,6,-2,1
1283,22248088,6,-1,1
1284,22251480,7,-3,1
1285,22254892,6,-4,0
1286,22258300,6,-5,1
1287,22261704,7,-4,1
1288,22265092,7,-4,1
1289,22268492,7,-3,2
1290,22271880,6,-2,2
1291,22275276,6,-1,2
1292,22281876,5,0,1
1293,22285264,4,2,1
1294,22288660,3,4,0
1295,22292032,2,4,-1
1296,22295420,1,6,-1
1297,22298820,-1,6,-3
1298,22302244,-2,7,-4
1299,22305680,-3,8,-5
1300,22309116,-6,9,-5
1301,22312560,-7,9,-6
1302,22315996,-9,10,-6
1303,22319464,-10,10,-6
1304,22322932,-11,11,-5
1305,22326424,-13,11,-4
1306,22329900,-14,11,-4
1307,22333396,-16,11,-3
1308,22336884,-17,11,-2
1309,22340368,-18,12,-3
1310,22343852,-18,11,-3
1311,22347336,-19,11,-4
1312,22350824,-19,11,-4
1313,22354296,-19,11,-4
1314,22357760,-19,11,-3
1315,22364440,-18,10,-1
1316,22367888,-17,10,0
1317,22371324,-17,9,1
1318,22374756,-15,9,1
1319,22378176,-14,8,1
1320,22381600,-13,8,1
1321,22385020,-11,8,0
1322,22388440,-10,7,0
1323,22391884,-8,6,-1
1324,22395296,-6,6,-1
1325,22398720,-4,5,-2
1326,22402152,-2,4,-2
1327,22405564,0,3,-2
1328,22408956,2,2,-2
1329,22412368,4,1,-3
1330,22415760,6,1,-3
1331,22419168,8,-0,-3
1332,22422596,9,-1,-3
1333,22426008,10,-2,-3
1334,22429452,12,-2,-3
1335,22432892,13,-3,-3
1336,22436324,14,-3,-3
1337,22439764,15,-3,-3
1338,22446280,17,-4,-2
1339,22449712,18,-4,-1
1340,22453172,18,-4,0
1341,22456608,19,-4,3
1342,22460040,19,-4,5
1343,22463480,18,-3,7
1344,22466924,18,-3,8
1345,22470356,18,-3,8
1346,22473796,18,-2,8
1347,22477228,18,-2,8
1348,22480668,18,-2,8
1349,22484120,18,-2,8
1350,22487552,17,-2,9
1351,22490976,17,-3,9
1352,22494428,18,-3,9
1353,22497860,18,-4,8
1354,22501320,17,-6,8
1355,22504780,17,-7,7
1356,22508224,16,-8,7
1357,22511684,16,-11,5
1358,22515148,15,-12,4
1359,22518616,15,-14,3
1360,22522080,14,-16,1
1361,22528592,12,-20,-0
1362,22532068,12,-22,-1
1363,22535544,11,-24,-0
1364,22539000,10,-26,1
1365,22542444,9,-28,2
1366,22545900,9,-30,3
1367,22549340,9,-31,5
1368,22552792,8,-33,6
1369,22556224,8,-33,6
1370,22559672,8,-35,7
1371,22563112,7,-36,6
1372,22566544,6,-37,6
1373,22569976,6,-38,6
1374,22573432,6,-39,5
1375,22576868,5,-40,5
1376,22580308,5,-41,5
1377,22583728,5,-41,6
1378,22587164,5,-42,5
1379,22590596,4,-42,5
1380,22594020,4,-42,5
1381,22597456,3,-41,4
1382,22600876,3,-41,4
1383,22604284,2,-41,3
1384,22610924,1,-40,2
1385,22614352,0,-40,2
1386,22617776,-1,-39,2
1387,22621224,-2,-39,1
1388,22624680,-2,-38,1
1389,22628128,-3,-37,1
1390,22631592,-4,-36,2
1391,22635044,-5,-35,2
1392,22638500,-6,-34,2
1393,22641956,-6,-33,3
1394,22645424,-7,-31,3
1395,22648904,-8,-30,3
1396,22652360,-9,-28,2
1397,22655828,-10,-26,2
1398,22659312,-10,-24,1
1399,22662780,-11,-22,1
1400,22666276,-12,-19,1
1401,22669748,-13,-17,0
1402,22673208,-14,-15,0
1403,22676692,-15,-13,1
1404,22680152,-15,-12,2
1405,22683644,-16,-10,2
1406,22690332,-18,-7,4
1407,22693800,-19,-6,5
1408,22697280,-20,-4,5
1409,22700740,-20,-3,5
1410,22704176,-21,-1,6
1411,22707620,-22,-0,6
1412,22711076,-22,1,6
1413,22714536,-23,2,6
1414,22717980,-23,3,6
1415,22721444,-23,4,7
1416,22724908,-23,5,7
1417,22728368,-24,6,7
1418,22731812,-24,7,7
1419,22735252,-24,7,8
1420,22738692,-23,8,9
1421,22742148,-23,9,9
1422,22745600,-23,9,10
1423,22749068,-23,10,11
1424,22752544,-22,10,11
1425,22756020,-21,10,12
1426,22759512,-21,10,13
1427,22763004,-21,10,13
1428,22769688,-19,10,13
1429,22773156,-18,10,13
1430,22776612,-18,9,13
1431,22780064,-17,8,14
1432,22783500,-16,8,14
1433,22786948,-15,7,15
1434,22790400,-14,6,15
1435,22793844,-13,5,16
1436,22797284,-12,5,17
1437,22800736,-11,4,18
1438,22804188,-9,3,19
1439,22807620,-8,2,20
1440,22811036,-6,1,20
1441,22814452,-5,1,21
1442,22817880,-3,0,21
1443,22821296,-2,0,21
1444,22824728,-0,0,21
1445,22828148,1,0,20
1446,22831564,3,1,19
1447,22834972,4,1,18
1448,22838388,5,2,16
1449,22841812,6,1,15
1450,22845228,8,2,14
1451,22851848,10,3,15
1452,22855280,12,3,15
1453,22858724,13,4,15
1454,22862176,14,4,15
1455,22865600,16,5,14
1456,22869044,17,5,14
1457,22872476,18,5,14
1458,22875904,18,5,13
1459,22879360,19,5,13
1460,22882792,20,6,12
1461,22886220,20,6,11
1462,22889648,21,7,11
1463,22893064,21,7,9
1464,22896480,21,7,9
1465,22899900,22,8,9
1466,22903316,22,8,9
1467,22906764,22,9,10
1468,22910216,22,10,10
1469,22913676,22,10,11
1470,22917136,22,10,11
1471,22920584,22,11,11
1472,22924040,22,11,10
1473,22927496,20,10,9
1474,22934136,19,9,8
1475,22937564,18,8,7
1476,22940984,16,7,7
1477,22944400,15,6,6
1478,22947820,13,5,5
1479,22951232,12,3,4
1480,22954636,11,2,3
1481,22958040,9,-0,2
1482,22961428,6,-2,2
1483,22964828,5,-3,1
1484,22968236,3,-5,1
1485,22971620,2,-6,1
1486,22975008,-1,-7,1
1487,22978424,-3,-7,2
1488,22981848,-4,-8,2
1489,22985276,-6,-8,3
1490,22988712,-7,-8,5
1491,22992140,-9,-8,6
1492,22995604,-10,-7,8
1493,22999080,-11,-7,10
1494,23002548,-12,-7,12
1495,23006032,-13,-6,14
1496,23009532,-14,-6,15
1497,23013028,-14,-5,17
1498,23019736,-16,-5,18
1499,23023212,-16,-4,18
1500,23026716,-15,-4,19
1501,23030196,-15,-4,19
1502,23033664,-15,-3,19
1503,23037148,-15,-3,18
1504,23040604,-15,-3,18
1505,23044076,-14,-2,17
1506,23047540,-13,-1,16
1507,23050988,-12,-1,16
1508,23054444,-11,-1,16
1509,23057896,-11,-1,16
1510,23061372,-9,-0,16
1511,23064816,-7,-0,17
1512,23068264,-6,0,18
1513,23071704,-4,0,19
1514,23075132,-3,0,20
1515,23078544,-1,1,21
1516,23081928,0,1,22
1517,23085316,2,2,22
1518,23088716,3,1,22
1519,23092116,5,2,22
1520,23098592,7,1,21
1521,23101988,8,1,21
1522,23105388,10,0,20
1523,23108816,11,0,19
1524,23112232,12,-0,19
1525,23115668,14,-0,19
1526,23119104,15,-1,19
1527,23122536,16,-2,19
1528,23125984,17,-3,20
1529,23129432,19,-3,21
1530,23132872,20,-3,21
1531,23136320,21,-4,21
1532,23139768,22,-4,20
1533,23143212,23,-4,19
1534,23146668,23,-4,18
1535,23150120,23,-3,17
1536,23153576,24,-3,15
1537,23157032,24,-3,14
1538,23160492,24,-2,12
1539,23163948,24,-1,10
1540,23167388,23,-1,9
1541,23170800,23,0,8
1542,23174228,24,1,7
1543,23180708,23,3,7
1544,23184112,23,5,7
1545,23187552,23,6,8
1546,23190984,22,8,8
1547,23194400,22,9,9
1548,23197828,23,11,9
1549,23201276,23,13,10
1550,23204744,24,15,10
1551,23208220,24,16,10
1552,23211668,25,18,10
1553,23215136,26,19,10
1554,23218612,27,19,10
1555,23222080,27,19,11
1556,23225552,26,19,12
1557,23229020,26,19,12
1558,23232488,25,18,13
1559,23235936,25,18,14
1560,23239396,23,18,15
1561,23242860,21,18,15
1562,23246308,20,19,15
1563,23249768,19,19,15
1564,23253228,18,20,15
1565,23265136,15,21,16
1566,23268596,15,22,16
1567,23272056,14,21,16
1568,23275528,12,21,15
1569,23278968,11,20,15
1570,23282412,9,20,14
1571,23285844,7,19,14
1572,23289276,5,19,14
1573,23292700,3,18,13
1574,23296120,0,17,13
1575,23299556,-3,16,13
1576,23302992,-6,15,13
1577,23306452,-10,14,12
1578,23309900,-13,13,12
1579,23313356,-16,11,11
1580,23316820,-20,10,11
1581,23320268,-23,9,11
1582,23323712,-26,8,10
1583,23327160,-28,7,10
1584,23330604,-30,6,10
1585,23334056,-32,6,11
1586,23337500,-34,5,11
1587,23340956,-35,4,11
1588,23347628,-36,4,12
1589,23351088,-36,5,13
1590,23354560,-36,5,14
1591,23358020,-36,5,14
1592,23361480,-35,5,15
1593,23364944,-34,5,16
1594,23368400,-33,5,16
1595,23371864,-32,5,17
1596,23375300,-30,4,17
1597,23378764,-28,3,17
1598,23382220,-26,2,17
1599,23385652,-24,1,17
1600,23389100,-21,-1,17
1601,23392564,-19,-2,17
1602,23396024,-17,-4,16
1603,23399508,-14,-6,15
1604,23402960,-12,-7,15
1605,23406444,-11,-9,14
1606,23409912,-10,-11,13
1607,23413416,-9,-13,12
1608,23416904,-8,-15,11
1609,23420356,-8,-17,9
1610,23427020,-8,-20,7
1611,23430484,-8,-21,6
1612,23433928,-8,-21,5
1613,23437388,-8,-22,4
1614,23440832,-8,-22,3
1615,23444268,-7,-22,3
1616,23447720,-6,-22,3
1617,23451176,-5,-22,3
1618,23454624,-4,-21,4
1619,23458084,-3,-20,5
1620,23461528,-1,-20,5
1621,23464984,-1,-19,6
1622,23468420,0,-19,7
1623,23471844,1,-19,9
1624,23475276,2,-18,9
1625,23478712,2,-19,10
1626,23482160,1,-19,10
1627,23485620,1,-20,10
1628,23489068,1,-21,11
1629,23492520,1,-22,10
1630,23495972,1,-23,10
1631,23499396,1,-24,10
1632,23506040,2,-25,9
1633,23509464,2,-25,9
1634,23512876,1,-25,9
1635,23516292,0,-25,9
1636,23519724,-1,-26,10
1637,23523208,-2,-25,10
1638,23526684,-3,-25,10
1639,23530152,-5,-25,10
1640,23533648,-6,-25,11
1641,23537124,-7,-26,11
1642,23540604,-9,-25,11
1643,23544088,-11,-25,12
1644,23547596,-13,-25,12
1645,23551108,-14,-25,13
1646,23554608,-15,-24,13
1647,23558116,-16,-25,14
1648,23561632,-17,-24,14
1649,23565136,-18,-24,15
1650,23568656,-17,-24,15
1651,23572180,-17,-24,16
1652,23575712,-17,-24,16
1653,23582436,-18,-24,16
1654,23585980,-18,-24,16
1655,23589504,-18,-24,15
1656,23593048,-18,-24,16
1657,23596588,-19,-24,16
1658,23600108,-19,-24,16
1659,23603644,-20,-24,16
1660,23607160,-20,-24,17
1661,23610692,-20,-24,18
1662,23614216,-20,-23,19
1663,23617752,-20,-23,20
1664,23621272,-20,-22,22
1665,23624808,-19,-22,24
1666,23628336,-19,-22,26
1667,23631864,-18,-21,27
1668,23635380,-17,-21,29
1669,23638876,-17,-21,31
1670,23642404,-15,-21,32
1671,23645928,-15,-21,33
1672,23649456,-14,-21,35
1673,23652972,-13,-20,36
1674,23659684,-12,-18,38
1675,23663196,-11,-17,39
1676,23666720,-10,-16,39
1677,23670224,-9,-15,40
1678,23673708,-9,-13,41
1679,23677180,-8,-12,41
1680,23680652,-7,-11,41
1681,23684136,-6,-10,41
1682,23687588,-5,-8,41
1683,23691024,-3,-7,40
1684,23694488,-2,-6,40
1685,23697924,1,-4,39
1686,23701340,3,-3,39
1687,23704768,5,-3,39
1688,23708196,7,-2,39
1689,23711624,9,-2,39
1690,23715052,12,-1,39
1691,23718484,14,-0,39
1692,23721920,17,0,38
1693,23725348,18,1,39
1694,23728756,21,1,38
1695,23732176,22,2,38
1696,23738692,24,3,38
1697,23742128,25,3,38
1698,23745580,24,3,37
1699,23749024,24,3,37
1700,23752488,24,3,37
1701,23755944,23,3,37
1702,23759396,22,3,37
1703,23762844,22,2,37
1704,23766296,22,2,38
1705,23769724,22,2,38
1706,23773164,23,2,38
1707,23776596,22,1,39
1708,23780052,23,1,39
1709,23783524,23,1,40
1710,23786976,24,1,41
1711,23790416,24,0,41
1712,23793872,23,-0,41
1713,23797340,23,-1,41
1714,23800788,23,-1,41
1715,23804248,22,-2,41
1716,23807708,22,-3,41
1717,23811184,21,-4,41
1718,23814664,20,-4,40
1719,23821328,19,-6,39
1720,23824788,18,-6,38
1721,23828256,17,-7,38
1722,23831736,16,-7,38
1723,23835208,15,-7,37
1724,23838668,15,-7,37
1725,23842168,14,-7,37
1726,23845628,14,-7,37
1727,23849104,13,-7,37
1728,23852568,13,-7,38
1729,23856032,12,-7,38
1730,23859508,12,-7,38
1731,23862984,12,-7,38
1732,23866468,11,-7,39
1733,23869948,11,-7,39
1734,23873424,12,-7,40
1735,23876900,12,-7,41
1736,23880356,13,-7,41
1737,23883828,14,-7,42
1738,23887284,15,-7,43
1739,23890748,16,-7,45
1740,23894224,16,-6,46
1741,23900896,17,-5,48
1742,23904364,18,-5,49
1743,23907828,18,-4,49
1744,23911300,17,-4,50
1745,23914756,17,-3,50
1746,23918196,17,-1,50
1747,23921640,17,-0,50
1748,23925088,16,2,50
1749,23928540,15,3,49
1750,23931992,12,3,49
1751,23935452,11,3,49
1752,23938904,10,4,49
1753,23942348,8,4,49
1754,23945780,6,3,49
1755,23949208,5,3,49
1756,23952632,4,2,49
1757,23956016,2,2,49
1758,23959428,-1,0,48
1759,23962864,-3,-1,47
1760,23966328,-3,-2,46
1761,23969804,-4,-4,46
1762,23973264,-3,-5,45
1763,23976740,-2,-5,45
1764,23983416,-0,-6,45
1765,23986896,1,-6,45
1766,23990348,2,-6,45
1767,23993796,2,-6,46
1768,23997248,3,-5,46
1769,24000696,3,-5,47
1770,24004132,4,-4,47
1771,24007568,4,-4,48
1772,24011012,4,-3,48
1773,24014464,4,-3,49
1774,24017900,4,-3,49
1775,24021340,3,-3,50
1776,24024776,3,-4,50
1777,24028224,2,-4,50
1778,24031644,1,-5,50
1779,24035072,1,-5,51
1780,24038516,0,-5,51
1781,24041960,0,-5,52
1782,24045400,-0,-5,53
1783,24048856,0,-6,54
1784,24052268,2,-5,55
1785,24055732,5,-5,56
1786,24059176,7,-5,58
1787,24065812,14,-4,62
1788,24069296,18,-4,64
1789,24072760,22,-4,66
1790,24076240,26,-4,68
1791,24079724,29,-3,69
1792,24083192,31,-3,70
1793,24086668,33,-3,71
1794,24090132,33,-3,71
1795,24093616,32,-2,70
1796,24097088,31,-2,69
1797,24100532,28,-1,67
1798,24103980,25,-1,65
1799,24107428,22,-1,63
1800,24110860,19,-0,61
1801,24114316,15,-0,59
1802,24117760,11,-0,57
1803,24121196,8,-0,55
1804,24124632,4,0,53
1805,24128028,2,0,51
1806,24131440,-2,0,49
1807,24134864,-4,0,48
1808,24138292,-7,0,47
1809,24141712,-9,0,46
1810,24148340,-13,0,45
1811,24151776,-14,0,45
1812,24155224,-15,0,45
1813,24158664,-15,0,45
1814,24162092,-15,0,46
1815,24165536,-15,0,46
1816,24168980,-15,1,47
1817,24172424,-15,1,48
1818,24175868,-15,1,49
1819,24179320,-15,2,50
1820,24182768,-15,2,51
1821,24186212,-16,2,52
1822,24189664,-17,2,53
1823,24193132,-17,2,54
1824,24196580,-18,2,54
1825,24200040,-19,2,54
1826,24203492,-19,1,54
1827,24206944,-20,1,53
1828,24210408,-21,0,53
1829,24213876,-21,-0,52
1830,24217336,-22,-1,51
1831,24220808,-21,-1,50
1832,24227476,-21,-2,47
1833,24230960,-21,-2,46
1834,24234436,-20,-2,45
1835,24237916,-18,-2,44
1836,24241384,-17,-2,44
1837,24244856,-15,-2,44
1838,24248344,-12,-2,44
1839,24251800,-9,-2,45
1840,24255248,-6,-2,46
1841,24258700,-3,-2,47
1842,24262148,-0,-1,48
1843,24265588,2,-0,49
1844,24269020,4,-0,50
1845,24272436,8,1,51
1846,24275856,10,2,52
1847,24279296,11,2,52
1848,24282724,12,3,52
1849,24286164,14,3,53
1850,24289616,15,3,53
1851,24293068,16,4,53
1852,24296524,17,5,53
1853,24299972,17,5,53
1854,24306632,19,5,53
1855,24310088,20,6,52
1856,24313524,19,6,52
1857,24316976,19,7,51
1858,24320424,19,7,51
1859,24323864,20,7,50
1860,24327336,19,8,50
1861,24330780,19,8,50
1862,24334236,18,8,50
1863,24337684,17,7,49
1864,24341144,16,7,49
1865,24344584,15,7,48
1866,24348036,14,7,47
1867,24351456,12,6,46
1868,24354920,10,5,46
1869,24358352,8,4,46
1870,24361780,7,3,45
1871,24365216,5,2,45
1872,24368628,4,1,44
1873,24372036,4,0,44
1874,24375448,3,-1,43
1875,24378884,3,-2,43
1876,24382332,3,-3,43
1877,24385768,3,-4,42
1878,24392132,3,-4,41
1879,24395556,2,-5,41
1880,24399000,1,-5,41
1881,24402444,-0,-5,40
1882,24405896,-1,-5,40
1883,24409348,-1,-4,40
1884,24412828,-2,-4,40
1885,24416296,-4,-3,39
1886,24419756,-5,-3,39
1887,24423204,-6,-2,39
1888,24426672,-7,-1,38
1889,24430120,-8,-1,38
1890,24433588,-9,-0,38
1891,24437064,-10,0,37
1892,24440508,-10,1,37
1893,24443960,-10,1,38
1894,24447412,-10,1,38
1895,24450868,-11,1,38
1896,24454320,-12,2,38
1897,24457768,-12,2,38
1898,24461212,-11,1,38
1899,24464660,-11,2,38
1900,24471152,-11,2,37
1901,24474596,-10,2,37
1902,24478052,-10,2,36
1903,24481488,-8,2,36
1904,24484936,-8,2,35
1905,24488360,-7,2,35
1906,24491796,-6,2,35
1907,24495228,-5,2,34
1908,24498648,-4,2,34
1909,24502076,-4,2,34
1910,24505520,-3,2,34
1911,24508940,-2,2,34
1912,24512364,-2,1,34
1913,24515772,-1,1,34
1914,24519188,-0,1,34
1915,24522596,0,1,33
1916,24525984,0,0,33
1917,24529372,1,0,33
1918,24532776,3,-0,32
1919,24536212,3,-1,32
1920,24539632,4,-1,31
1921,24543060,5,-1,30
1922,24546480,5,-1,29
1923,24549904,6,-1,29
1924,24556536,6,-1,27
1925,24559964,6,-1,27
1926,24563388,7,-1,26
1927,24566820,7,-0,26
1928,24570244,7,-0,26
1929,24573688,7,0,26
1930,24577104,7,0,26
1931,24580504,7,0,26
1932,24583908,7,0,26
1933,24587324,6,1,26
1934,24590740,6,1,26
1935,24594144,5,1,25
1936,24597560,5,1,25
1937,24600972,5,1,25
1938,24604384,4,2,24
1939,24607804,2,1,24
1940,24611192,2,2,23
1941,24614580,1,2,22
1942,24617972,0,2,22
1943,24621384,-1,1,21
1944,24624784,-1,1,20
1945,24628196,-2,1,20
1946,24631628,-2,0,19
1947,24635060,-3,-0,18
1948,24641696,-4,-2,17
1949,24645140,-5,-2,16
1950,24648588,-6,-3,16
1951,24652044,-7,-3,15
1952,24655504,-7,-4,14
1953,24658956,-8,-4,12
1954,24662412,-9,-4,10
1955,24665860,-9,-4,9
1956,24669320,-9,-4,7
1957,24672748,-8,-4,5
1958,24676192,-7,-4,4
1959,24679644,-6,-4,2
1960,24683068,-5,-4,1
1961,24686512,-4,-4,0
1962,24689956,-2,-4,-1
1963,24693376,-1,-5,-2
1964,24696812,0,-5,-3
1965,24700232,2,-5,-3
1966,24703668,3,-4,-4
1967,24707108,5,-4,-4
1968,24710556,6,-4,-5
1969,24713976,8,-4,-5
1970,24720600,10,-3,-6
1971,24724056,11,-3,-6
1972,24727520,12,-2,-7
1973,24730964,12,-2,-8
1974,24734400,13,-2,-9
1975,24737852,13,-1,-10
1976,24741304,13,-1,-11
1977,24744764,13,-1,-12
1978,24748240,14,-1,-13
1979,24751692,14,-1,-14
1980,24755164,13,-1,-15
1981,24758628,12,-1,-16
1982,24762088,11,-1,-17
1983,24765548,10,-1,-18
1984,24769004,9,-2,-19
1985,24772452,7,-3,-21
1986,24775916,5,-3,-22
1987,24779360,4,-4,-23
1988,24782808,2,-5,-25
1989,24786264,1,-5,-26
1990,24789720,-0,-6,-28
1991,24793192,-1,-6,-30
1992,24799864,-3,-7,-33
1993,24803360,-3,-8,-35
1994,24806836,-4,-8,-37
1995,24810312,-5,-9,-38
1996,24813828,-5,-10,-40
1997,24817336,-7,-11,-41
1998,24820860,-8,-12,-42
1999,24824368,-9,-13,-43
2000,24827876,-10,-13,-44
2001,24831436,-11,-14,-46
2002,24834988,-12,-15,-47
2003,24838548,-14,-16,-49
2004,24842080,-15,-16,-51
2005,24845628,-16,-17,-53
2006,24849160,-17,-18,-56
2007,24852700,-18,-18,-58
2008,24856248,-19,-19,-61
2009,24859808,-19,-20,-64
2010,24863340,-19,-20,-67
2011,24866884,-19,-20,-71
2012,24873608,-20,-21,-76
2013,24877156,-20,-21,-79
2014,24880684,-21,-21,-82
2015,24884208,-22,-21,-84
2016,24887744,-23,-21,-86
2017,24891272,-24,-21,-87
2018,24894820,-25,-20,-89
2019,24898364,-26,-19,-90
2020,24901892,-26,-18,-91
2021,24905436,-27,-17,-92
2022,24908992,-27,-16,-92
2023,24912524,-27,-15,-93
2024,24916076,-27,-14,-92
2025,24919600,-26,-13,-92
2026,24923132,-25,-12,-91
2027,24926652,-24,-12,-90
2028,24930176,-22,-11,-89
2029,24933712,-20,-10,-88
2030,24937236,-18,-9,-87
2031,24940752,-17,-9,-86
2032,24947444,-14,-8,-84
2033,24950952,-13,-7,-83
2034,24954460,-12,-7,-82
2035,24957968,-12,-7,-82
2036,24961472,-12,-7,-81
2037,24964976,-12,-7,-81
2038,24968484,-11,-6,-81
2039,24971992,-10,-5,-81
2040,24975500,-9,-4,-82
2041,24978968,-9,-4,-82
2042,24982440,-9,-3,-83
2043,24985904,-9,-3,-85
2044,24989364,-9,-2,-86
2045,24992848,-8,-1,-88
2046,24996300,-9,1,-90
2047,24999748,-10,2,-93
2048,25003228,-14,6,-99
2049,25006708,-14,6,-102
2050,25010220,-14,7,-104
2051,25013732,-18,7,-108
2052,25017248,-23,9,-111
2053,25023820,-28,10,-115
2054,25027356,-29,12,-116
2055,25030896,-32,12,-118
2056,25034416,-36,14,-120
2057,25037960,-39,15,-122
2058,25041492,-39,17,-124
2059,25045040,-38,19,-125
2060,25048576,-38,19,-126
2061,25052116,-39,20,-126
2062,25055664,-39,21,-127
2063,25059212,-38,21,-127
2064,25062764,-36,21,-127
2065,25066300,-35,21,-127
2066,25069872,-34,21,-127
2067,25073416,-32,21,-127
2068,25076976,-30,21,-127
2069,25080512,-27,22,-127
2070,25084068,-24,22,-127
2071,25087612,-23,21,-128
2072,25091172,-21,20,-129
2073,25097752,-17,18,-130
2074,25101300,-15,17,-131
2075,25104856,-13,16,-132
2076,25108408,-11,16,-133
2077,25111944,-9,16,-133
2078,25115464,-6,16,-133
2079,25118996,-3,15,-132
2080,25122512,-1,15,-130
2081,25126032,2,14,-128
2082,25129516,6,13,-125
2083,25133012,11,12,-121
2084,25136540,16,10,-117
2085,25140048,21,8,-113
2086,25143536,25,7,-109
2087,25147024,30,5,-105
2088,25150512,35,3,-101
2089,25153984,40,2,-98
2090,25157444,45,0,-95
2091,25160908,48,-2,-92
2092,25164376,52,-3,-90
2093,25171072,58,-6,-87
2094,25174540,61,-8,-86
2095,25178044,63,-10,-85
2096,25181568,65,-11,-84
2097,25185084,67,-12,-84
2098,25188608,69,-14,-84
2099,25192120,71,-15,-84
2100,25195652,71,-16,-85
2101,25199156,72,-17,-86
2102,25202696,72,-19,-87
2103,25206236,72,-20,-87
2104,25209760,72,-21,-88
2105,25213300,71,-21,-89
2106,25216816,72,-22,-90
2107,25220336,72,-22,-90
2108,25223864,72,-23,-90
2109,25227400,71,-23,-90
2110,25230928,70,-23,-90
2111,25234468,69,-23,-91
2112,25237984,68,-23,-91
2113,25241500,68,-22,-92
2114,25248220,67,-20,-94
2115,25251728,67,-21,-96
2116,25255256,66,-20,-97
2117,25258772,66,-19,-99
2118,25262288,65,-18,-101
2119,25265820,64,-17,-103
2120,25269364,63,-17,-103
2121,25272900,62,-17,-106
2122,25276448,61,-17,-106
2123,25279988,60,-17,-106
2124,25283532,57,-17,-107
2125,25287080,54,-17,-106
2126,25290624,51,-17,-105
2127,25294168,48,-17,-104
2128,25297692,45,-17,-104
2129,25301240,42,-17,-103
2130,25304776,38,-18,-103
2131,25308328,35,-18,-102
2132,25311864,32,-19,-102
2133,25315420,28,-19,-101
2134,25322132,22,-20,-99
2135,25325656,19,-19,-99
2136,25329168,15,-18,-99
2137,25332676,12,-18,-98
2138,25336172,8,-17,-96
2139,25339640,3,-16,-95
2140,25343120,-2,-15,-94
2141,25346620,-7,-14,-93
2142,25350128,-12,-13,-91
2143,25353664,-16,-12,-88
2144,25357204,-19,-11,-86
2145,25360752,-23,-11,-84
2146,25364292,-27,-10,-81
2147,25367836,-29,-10,-79
2148,25371368,-31,-10,-78
2149,25374928,-33,-11,-77
2150,25378480,-35,-12,-76
2151,25382040,-36,-12,-75
2152,25385584,-35,-13,-74
2153,25389128,-34,-13,-74
2154,25395832,-33,-14,-73
2155,25399380,-32,-14,-73
2156,25402900,-31,-14,-73
2157,25406432,-30,-13,-73
2158,25409980,-29,-13,-73
2159,25413508,-29,-12,-72
2160,25417044,-28,-11,-72
2161,25420584,-26,-10,-71
2162,25424140,-25,-10,-71
2163,25427664,-23,-9,-71
2164,25431184,-22,-9,-71
2165,25434680,-20,-8,-71
2166,25438184,-19,-8,-71
2167,25441704,-18,-9,-71
2168,25445204,-16,-8,-72
2169,25448724,-15,-9,-73
2170,25452236,-13,-9,-74
2171,25455756,-9,-10,-75
2172,25459260,-7,-11,-75
2173,25462760,-4,-11,-76
2174,25469452,1,-12,-76
2175,25472932,3,-12,-77
2176,25476400,4,-13,-77
2177,25479864,5,-13,-77
2178,25483360,5,-14,-76
2179,25486820,6,-14,-76
2180,25490308,7,-14,-75
2181,25493792,7,-15,-75
2182,25497272,6,-16,-74
2183,25500760,6,-16,-74
2184,25504232,5,-17,-74
2185,25507720,4,-17,-73
2186,25511184,3,-17,-73
2187,25514640,2,-17,-72
2188,25518108,1,-17,-71
2189,25521568,1,-17,-71
2190,25525048,0,-16,-70
2191,25528528,0,-16,-68
2192,25531996,-0,-16,-67
2193,25535496,-1,-16,-66
2194,25538984,-2,-16,-64
2195,25545672,-2,-14,-61
2196,25549188,-3,-14,-59
2197,25552692,-4,-14,-57
2198,25556204,-4,-13,-55
2199,25559704,-5,-13,-53
2200,25563216,-6,-13,-51
2201,25566720,-7,-12,-50
2202,25570224,-9,-12,-49
2203,25573752,-10,-11,-48
2204,25577272,-11,-11,-47
2205,25580804,-12,-10,-46
2206,25584340,-14,-10,-46
2207,25587892,-15,-9,-45
2208,25591404,-17,-9,-45
2209,25594932,-18,-8,-45
2210,25598440,-20,-7,-44
2211,25601948,-21,-6,-43
2212,25605460,-22,-6,-42
2213,25608960,-23,-5,-41
2214,25612484,-24,-5,-40
2215,25615988,-26,-4,-38
2216,25622560,-27,-2,-35
2217,25626056,-29,-2,-34
2218,25629556,-30,-1,-33
2219,25633056,-31,0,-32
2220,25636508,-33,1,-31
2221,25639996,-35,1,-30
2222,25643448,-36,2,-29
2223,25646928,-37,3,-28
2224,25650404,-38,3,-27
2225,25653888,-40,4,-27
2226,25657368,-40,5,-26
2227,25660840,-41,5,-26
2228,25664304,-41,5,-26
2229,25667784,-41,6,-25
2230,25671248,-41,6,-25
2231,25674736,-40,7,-25
2232,25678220,-39,7,-24
2233,25681688,-39,7,-22
2234,25685168,-39,6,-21
2235,25688644,-38,8,-20
2236,25692136,-38,7,-18
2237,25698676,-35,7,-16
2238,25702144,-35,8,-14
2239,25705612,-34,8,-13
2240,25709088,-34,8,-11
2241,25712568,-34,8,-10
2242,25716032,-34,8,-8
2243,25719484,-35,8,-7
2244,25722944,-35,7,-6
2245,25726404,-35,7,-4
2246,25729864,-35,6,-3
2247,25733308,-35,6,-1
2248,25736748,-35,6,1
2249,25740180,-35,7,2
2250,25743612,-36,7,3
2251,25747028,-36,6,5
2252,25750448,-37,6,6
2253,25753876,-37,6,7
2254,25757320,-37,7,9
2255,25760760,-37,7,10
2256,25764216,-37,7,12
2257,25767664,-37,8,14
2258,25771128,-37,8,15
2259,25782792,-38,10,21
2260,25786268,-38,10,22
2261,25789740,-39,11,24
2262,25793192,-39,11,26
2263,25796680,-40,12,27
2264,25800128,-40,12,29
2265,25803592,-40,12,29
2266,25807052,-39,13,30
2267,25810512,-39,13,31
2268,25814000,-38,13,32
2269,25817464,-38,13,33
2270,25820924,-38,13,34
2271,25824416,-38,13,34
2272,25827884,-36,13,35
2273,25831384,-35,12,35
2274,25834872,-34,12,36
2275,25838348,-33,12,37
2276,25841832,-32,13,37
2277,25845308,-30,13,38
2278,25848820,-27,13,38
2279,25852296,-24,13,39
2280,25858984,-18,12,39
2281,25862476,-15,11,40
2282,25865952,-11,10,40
2283,25869424,-7,9,40
2284,25872876,-3,7,40
2285,25876308,0,6,40
2286,25879736,3,4,40
2287,25883152,6,2,39
2288,25886552,9,0,39
2289,25889972,12,-1,39
2290,25893436,14,-3,38
2291,25896908,17,-5,38
2292,25900388,20,-7,38
2293,25903848,23,-9,39
2294,25907332,25,-10,39
2295,25910824,28,-11,40
2296,25914336,30,-12,41
2297,25917812,31,-13,42
2298,25921276,32,-14,43
2299,25924748,33,-14,44
2300,25928220,34,-15,46
2301,25931688,34,-15,48
2302,25935172,34,-15,51
2303,25941844,33,-14,58
2304,25945312,32,-14,62
2305,25948776,30,-13,66
2306,25952268,28,-12,70
2307,25955724,26,-11,73
2308,25959184,24,-9,77
2309,25962636,22,-8,80
2310,25966072,20,-8,83
2311,25969532,19,-7,84
2312,25972980,18,-6,86
2313,25976436,17,-6,87
2314,25979880,17,-5,88
2315,25983332,15,-4,88
2316,25986792,15,-4,89
2317,25990232,14,-2,89
2318,25993656,14,-2,90
2319,25997088,13,-1,90
2320,26000536,11,-0,90
2321,26003956,10,1,90
2322,26007364,8,1,91
2323,26010768,6,2,90
2324,26014176,4,3,90
2325,26020784,-1,4,88
2326,26024204,-3,5,86
2327,26027640,-6,4,85
2328,26031084,-9,4,84
2329,26034520,-11,4,83
2330,26037972,-13,4,82
2331,26041428,-15,4,82
2332,26044884,-16,5,81
2333,26048340,-17,5,81
2334,26051804,-18,5,81
2335,26055268,-18,5,81
2336,26058728,-18,6,81
2337,26062180,-18,6,80
2338,26065628,-17,5,80
2339,26069112,-17,5,79
2340,26072568,-16,5,78
2341,26076044,-15,5,78
2342,26079508,-14,5,77
2343,26082956,-13,4,77
2344,26086428,-13,3,76
2345,26089900,-13,3,75
2346,26093356,-13,2,75
2347,26100056,-15,-0,74
2348,26103516,-16,-1,74
2349,26106988,-18,-1,73
2350,26110444,-19,-1,73
2351,26113920,-21,-1,72
2352,26117392,-22,-1,71
2353,26120860,-23,-0,71
2354,26124352,-24,-0,70
2355,26127836,-25,-0,70
2356,26131320,-25,-0,69
2357,26134800,-25,-0,69
2358,26138256,-24,-0,69
2359,26141736,-23,0,69
2360,26145164,-22,0,69
2361,26148596,-21,1,68
2362,26152052,-20,1,68
2363,26155484,-19,2,68
2364,26158924,-18,2,68
2365,26162392,-18,2,68
2366,26165832,-17,2,68
2367,26169276,-17,2,68
2368,26172724,-16,2,69
2369,26179376,-15,1,70
2370,26182844,-15,1,70
2371,26186284,-14,0,70
2372,26189732,-14,-0,70
2373,26193188,-13,-1,70
2374,26196632,-12,-1,71
2375,26200108,-10,-1,71
2376,26203556,-9,-1,71
2377,26207000,-8,-2,71
2378,26210436,-7,-2,72
2379,26213868,-5,-2,72
2380,26217308,-4,-2,73
2381,26220756,-2,-2,74
2382,26224188,-1,-2,74
2383,26227620,1,-2,75
2384,26231032,2,-2,77
2385,26234444,4,-1,78
2386,26237868,5,-1,79
2387,26241292,7,-0,81
2388,26244732,8,-0,82
2389,26248176,9,-1,84
2390,26251604,11,-1,85
2391,26258124,13,-3,87
2392,26261596,14,-5,87
2393,26265060,15,-6,88
2394,26268528,15,-8,89
2395,26271988,16,-11,89
2396,26275476,16,-13,89
2397,26278964,16,-15,89
2398,26282444,16,-17,88
2399,26285924,16,-18,87
2400,26289408,16,-19,86
2401,26292896,17,-20,84
2402,26296396,17,-20,82
2403,26299872,16,-20,80
2404,26303364,16,-20,78
2405,26306840,15,-20,76
2406,26310304,14,-19,73
2407,26313796,13,-19,71
2408,26317256,12,-18,69
2409,26320736,11,-18,68
2410,26324200,11,-16,66
2411,26327664,9,-15,65
2412,26331104,8,-15,63
2413,26337600,5,-13,61
2414,26341052,4,-12,60
2415,26344500,2,-11,60
2416,26347960,1,-10,59
2417,26351396,-1,-9,59
2418,26354856,-3,-9,59
2419,26358304,-4,-8,58
2420,26361744,-6,-8,58
2421,26365184,-8,-8,57
2422,26368628,-9,-8,57
2423,26372072,-10,-7,56
2424,26375532,-11,-7,55
2425,26378988,-12,-7,54
2426,26382464,-13,-7,52
2427,26385916,-13,-7,50
2428,26389404,-14,-7,48
2429,26392876,-15,-6,45
2430,26396336,-15,-6,43
2431,26399820,-16,-5,40
2432,26403284,-16,-4,38
2433,26406752,-16,-4,36
2434,26410216,-16,-3,34
2435,26416892,-15,-3,31
2436,26420364,-14,-3,31
2437,26423832,-13,-3,30
2438,26427300,-12,-3,29
2439,26430768,-11,-3,29
2440,26434232,-10,-2,28
2441,26437692,-8,-2,28
2442,26441136,-7,-1,27
2443,26444568,-6,-0,27
2444,26448024,-5,1,26
2445,26451440,-4,1,26
2446,26454864,-3,2,25
2447,26458280,-1,3,24
2448,26461684,1,3,24
2449,26465096,4,4,24
2450,26468524,6,4,23
2451,26471932,8,4,23
2452,26475356,10,4,23
2453,26478792,11,4,23
2454,26482228,12,4,23
2455,26485660,12,4,23
2456,26489080,12,4,22
2457,26492496,11,4,22
2458,26499128,11,4,21
2459,26502544,10,4,21
2460,26505956,9,4,21
2461,26509360,9,4,21
2462,26512760,8,5,20
2463,26516160,7,5,20
2464,26519568,6,5,20
2465,26522972,5,6,21
2466,26526372,3,6,21
2467,26529780,2,7,21
2468,26533180,1,8,21
2469,26536580,-0,9,21
2470,26539996,-1,10,22
2471,26543440,-2,11,22
2472,26546872,-3,12,22
2473,26550320,-4,13,22
2474,26553760,-5,14,22
2475,26557204,-6,14,22
2476,26560652,-6,15,22
2477,26564092,-7,15,22
2478,26567532,-8,16,21
2479,26570972,-9,16,21
2480,26574424,-10,16,20
2481,26581100,-10,17,19
2482,26584564,-9,17,18
2483,26588024,-8,18,17
2484,26591496,-8,19,17
2485,26594964,-7,20,16
2486,26598424,-6,21,16
2487,26601888,-5,23,15
2488,26605328,-4,25,15
2489,26608792,-4,26,15
2490,26612236,-4,28,14
2491,26615688,-3,29,14
2492,26619124,-3,30,14
2493,26622580,-3,31,14
2494,26626032,-3,32,14
2495,26629480,-2,33,15
2496,26632936,-2,34,14
2497,26636380,-2,35,14
2498,26639824,-2,35,13
2499,26643276,-2,36,13
2500,26646740,-3,36,13
2501,26650192,-3,37,12
2502,26653632,-3,38,12
2503,26664808,-4,41,12
2504,26668264,-4,42,13
2505,26671720,-5,43,14
2506,26675172,-5,43,14
2507,26678640,-5,43,15
2508,26682112,-6,43,16
2509,26685600,-6,43,16
2510,26689060,-6,43,16
2511,26692524,-7,42,15
2512,26695980,-8,42,15
2513,26699432,-8,42,15
2514,26702916,-9,41,14
2515,26706360,-10,41,14
2516,26709836,-11,41,13
2517,26713332,-11,42,13
2518,26716828,-12,42,12
2519,26720332,-12,43,12
2520,26723808,-13,44,12
2521,26727292,-14,45,12
2522,26730768,-14,46,11
2523,26734244,-16,47,11
2524,26737748,-17,49,11
2525,26745508,-19,52,11
2526,26749008,-20,53,10
2527,26752480,-21,53,10
2528,26755968,-22,54,10
2529,26759448,-23,55,10
2530,26762924,-24,56,10
2531,26766440,-25,57,10
2532,26769920,-26,58,10
2533,26773420,-26,58,11
2534,26776908,-27,59,11
2535,26780376,-27,59,11
2536,26783860,-27,60,11
2537,26787336,-26,60,11
2538,26790808,-25,61,10
2539,26794280,-24,61,10
2540,26797740,-22,61,9
2541,26801204,-20,61,9
2542,26804656,-18,62,8
2543,26808116,-16,62,8
2544,26811580,-13,63,9
2545,26815044,-11,63,9
2546,26821708,-6,64,9
2547,26825148,-4,64,10
2548,26828592,-2,65,10
2549,26832052,0,66,10
2550,26835468,2,66,11
2551,26838904,3,67,11
2552,26842348,4,67,12
2553,26845780,6,67,13
2554,26849228,7,67,15
2555,26852680,8,68,16
2556,26856116,8,69,18
2557,26859580,9,70,19
2558,26863016,10,71,21
2559,26866464,9,72,23
2560,26869932,9,73,25
2561,26873372,8,74,27
2562,26876820,7,74,28
2563,26880268,8,75,29
2564,26883724,9,74,30
2565,26887184,9,73,31
2566,26890628,10,74,30
2567,26894088,11,74,29
2568,26897556,13,75,28
2569,26904092,17,73,26
2570,26907556,18,73,24
2571,26911024,18,71,23
2572,26914464,18,70,22
2573,26917932,17,70,22
2574,26921392,16,69,21
2575,26924840,15,68,21
2576,26928304,13,67,21
2577,26931748,11,66,21
2578,26935200,8,65,20
2579,26938656,6,64,20
2580,26942084,3,65,19
2581,26945500,2,65,17
2582,26948932,-0,65,16
2583,26952376,-3,63,15
2584,26955836,-5,62,14
2585,26959296,-7,61,12
2586,26962748,-9,58,12
2587,26966220,-11,57,11
2588,26969684,-12,55,10
2589,26973168,-13,53,9
2590,26976628,-13,51,8
2591,26980076,-13,48,7
2592,26986876,-16,43,5
2593,26990312,-17,40,3
2594,26993776,-19,38,2
2595,26997220,-20,36,1
2596,27000668,-22,35,-1
2597,27004136,-24,33,-3
2598,27007608,-26,33,-4
2599,27011096,-28,32,-5
2600,27014564,-30,32,-6
2601,27018024,-31,31,-7
2602,27021504,-33,31,-8
2603,27024968,-34,31,-9
2604,27028472,-35,31,-10
2605,27031988,-35,31,-10
2606,27035500,-35,30,-11
2607,27039020,-34,29,-11
2608,27042532,-33,28,-11
2609,27046048,-31,27,-12
2610,27049564,-29,27,-11
2611,27053080,-28,26,-11
2612,27056588,-26,25,-11
2613,27063308,-23,23,-12
2614,27066812,-21,21,-12
2615,27070328,-20,20,-12
2616,27073852,-18,19,-12
2617,27077380,-17,18,-11
2618,27080908,-15,17,-11
2619,27084424,-13,16,-11
2620,27087936,-12,15,-10
2621,27091452,-10,14,-10
2622,27094964,-9,13,-10
2623,27098444,-7,12,-10
2624,27101924,-5,11,-10
2625,27105404,-3,10,-10
2626,27108844,-1,9,-10
2627,27112288,-0,7,-10
2628,27115720,1,6,-10
2629,27119136,2,5,-10
2630,27122560,3,3,-10
2631,27125992,4,1,-10
2632,27129404,4,-1,-9
2633,27132820,5,-3,-9
2634,27139468,6,-7,-8
2635,27142892,6,-9,-8
2636,27146344,7,-11,-8
2637,27149788,7,-13,-8
2638,27153236,8,-15,-8
2639,27156700,9,-18,-8
2640,27160164,10,-21,-8
2641,27163644,10,-23,-8
2642,27167116,11,-26,-8
2643,27170580,11,-28,-8
2644,27174056,12,-31,-9
2645,27177528,12,-33,-10
2646,27181044,12,-36,-11
2647,27184560,12,-38,-11
2648,27188064,12,-40,-12
2649,27191572,12,-42,-13
2650,27195076,11,-44,-14
2651,27198596,11,-46,-14
2652,27202108,11,-47,-14
2653,27205628,10,-49,-15
2654,27209148,10,-51,-15
2655,27212652,9,-52,-15
2656,27219320,9,-56,-16
2657,27222804,9,-57,-17
2658,27226300,9,-59,-18
2659,27229788,10,-60,-18
2660,27233312,11,-61,-19
2661,27236828,11,-62,-20
2662,27240340,12,-63,-21
2663,27243868,12,-64,-22
2664,27247388,12,-65,-23
2665,27250920,13,-66,-24
2666,27254428,13,-66,-24
2667,27257948,13,-66,-25
2668,27261460,13,-67,-25
2669,27264984,12,-68,-25
2670,27268504,12,-69,-25
2671,27272004,11,-70,-25
2672,27275516,10,-72,-24
2673,27279024,9,-74,-23
2674,27282528,8,-76,-23
2675,27285996,7,-79,-22
2676,27292668,5,-86,-20
2677,27296148,4,-90,-19
2678,27299616,4,-92,-18
2679,27303104,4,-95,-17
2680,27306580,6,-97,-18
2681,27310088,7,-99,-18
2682,27313572,8,-100,-20
2683,27317092,10,-101,-22
2684,27320644,12,-101,-24
2685,27324176,14,-101,-27
2686,27327732,16,-101,-29
2687,27331276,17,-101,-31
2688,27334828,17,-100,-33
2689,27338376,17,-99,-35
2690,27341904,17,-98,-36
2691,27345428,17,-96,-37
2692,27348940,16,-95,-38
2693,27352456,14,-95,-38
2694,27355964,13,-93,-38
2695,27359484,12,-93,-38
2696,27362996,11,-93,-37
2697,27369704,10,-92,-36
2698,27373208,9,-92,-34
2699,27376700,8,-91,-32
2700,27380172,7,-93,-30
2701,27383656,6,-93,-29
2702,27387148,6,-93,-27
2703,27390616,5,-93,-26
2704,27394096,5,-93,-25
2705,27397560,4,-93,-24
2706,27401032,4,-93,-23
2707,27404512,4,-93,-23
2708,27407980,4,-93,-22
2709,27411460,5,-93,-22
2710,27414932,6,-93,-22
2711,27418408,7,-93,-22
2712,27421896,8,-93,-22
2713,27425372,9,-93,-21
2714,27428876,10,-93,-21
2715,27432388,11,-93,-21
2716,27435916,12,-93,-20
2717,27439448,12,-93,-20
2718,27446160,13,-94,-19
2719,27449700,14,-93,-19
2720,27453224,14,-93,-19
