loopIteration,time,gyroADC[0],gyroADC[1],gyroADC[2]
0,44648600,2,-2,1
1,44730976,8,0,2
2,44734312,6,-3,1
3,44737672,5,-5,1
4,44741000,3,-6,1
5,44744336,-0,-5,2
6,44747688,2,-6,2
7,44751048,4,-8,2
8,44754384,6,-6,2
9,44757732,6,-2,1
10,44761052,5,0,1
11,44764376,6,-2,2
12,44767732,6,-1,2
13,44771080,6,0,1
14,44774444,5,-1,1
15,44777788,5,-1,2
16,44781152,5,1,2
17,44784496,5,1,1
18,44787860,5,-1,0
19,44791216,4,-1,1
20,44794572,4,-0,0
21,44797932,3,-1,0
22,44801292,3,-1,1
23,44804652,3,-3,1
24,44808028,3,-3,0
25,44816208,2,-2,1
26,44819564,2,-3,1
27,44822916,2,-3,1
28,44826268,1,-3,1
29,44829632,1,-4,1
30,44832996,0,-4,1
31,44836344,0,-4,1
32,44839696,0,-3,1
33,44843084,-0,-3,1
34,44846456,-0,-4,1
35,44849832,-1,-4,1
36,44853220,-1,-3,1
37,44856592,-1,-3,1
38,44859972,-1,-3,0
39,44863348,-1,-3,0
40,44866736,-1,-2,0
41,44870112,-1,-2,0
42,44873484,-1,-2,0
43,44876864,-1,-2,0
44,44880236,-1,-1,0
45,44883608,-1,-1,0
46,44886992,-1,-1,0
47,44890360,-1,-1,0
48,44893716,-0,-1,0
49,44897080,-0,-2,0
50,44900452,-0,-1,0
51,44907984,0,-1,0
52,44911348,-0,-1,0
53,44914700,-0,-1,0
54,44918084,-1,-1,0
55,44921456,-1,-1,1
56,44924828,-1,-1,0
57,44928196,-0,-0,0
58,44931556,-1,0,0
59,44934904,-1,1,0
60,44938276,-3,1,0
61,44941640,-4,1,0
62,44945008,-3,-0,-0
63,44948400,-2,0,-0
64,44951768,-2,1,-0
65,44955152,-2,1,-1
66,44958516,-3,1,-0
67,44961900,-4,1,-0
68,44965264,-4,1,-0
69,44968636,-4,1,-0
70,44972004,-3,1,-0
71,44975384,-3,1,-1
72,44978760,-3,1,-1
73,44982132,-3,1,-0
74,44985504,-3,1,-0
75,44988864,-3,1,-0
76,44992228,-3,1,-0
77,44998860,-2,1,-0
78,45002216,-1,1,-0
79,45005560,-1,1,-0
80,45008940,-1,1,0
81,45012280,-1,1,0
82,45015620,-1,0,0
83,45018984,-1,0,-0
84,45022352,-0,-0,0
85,45025716,-0,-0,0
86,45029076,0,-0,0
87,45032408,0,0,0
88,45035752,1,-0,0
89,45039108,1,-0,0
90,45042448,1,0,0
91,45045780,1,0,0
92,45049100,1,0,0
93,45052412,1,0,0
94,45055732,1,0,0
95,45059068,1,0,0
96,45062400,1,0,0
97,45065740,1,0,0
98,45069072,1,0,0
99,45072404,1,0,0
100,45075728,1,0,0
101,45079084,1,0,0
102,45082448,1,-0,0
103,45085828,1,0,0
104,45092292,1,-0,0
105,45095668,1,-0,0
106,45099056,1,0,0
107,45102408,1,-0,0
108,45105784,1,0,1
109,45109136,1,0,0
110,45112492,0,0,0
111,45115836,0,0,0
112,45119184,0,0,0
113,45122532,0,0,0
114,45125896,0,0,0
115,45129248,-0,0,0
116,45132628,-0,0,-0
117,45136008,-0,0,0
118,45139388,-1,0,0
119,45142776,-1,-0,0
120,45146184,-1,0,0
121,45149564,-1,-0,0
122,45152964,-1,-0,0
123,45156376,-1,0,-0
124,45159760,-1,0,0
125,45163148,-1,0,-0
126,45166520,-1,0,0
127,45169924,-1,0,-0
128,45173308,-1,0,0
129,45176664,-1,0,0
130,45183168,-1,0,0
131,45186528,-1,0,0
132,45189888,-0,0,0
133,45193256,-0,0,0
134,45196628,-0,0,-0
135,45199996,-0,0,0
136,45203364,-0,-0,0
137,45206764,0,-0,0
138,45210124,0,-0,0
139,45213488,0,-0,0
140,45216848,1,0,0
141,45220180,1,0,0
142,45223516,0,0,0
143,45226868,1,0,0
144,45230244,0,0,0
145,45233596,0,0,0
146,45236932,0,0,0
147,45240280,0,0,0
148,45243640,0,-0,0
149,45247000,0,0,0
150,45250348,0,0,0
151,45253720,0,-0,0
152,45257092,-0,-0,0
153,45260480,0,-0,0
154,45263864,0,0,0
155,45267232,-0,0,0
156,45273600,-0,0,0
157,45276976,-0,0,-0
158,45280368,-1,-0,0
159,45283756,-1,-0,0
160,45287140,-0,0,0
161,45290524,-1,-0,-0
162,45293916,-0,-0,0
163,45297300,-0,0,0
164,45300672,-0,0,0
165,45304052,-0,0,-0
166,45307428,-0,0,0
167,45310796,-0,0,0
168,45314180,0,-0,0
169,45317532,0,0,0
170,45320896,0,-0,0
171,45324268,0,-0,0
172,45327636,0,-0,0
173,45330992,0,0,0
174,45334348,1,0,0
175,45337716,1,-0,0
176,45341084,1,-0,0
177,45344440,0,-0,0
178,45347800,1,0,0
179,45351164,1,-0,0
180,45354544,1,-0,0
181,45357916,1,0,0
182,45364316,0,-0,0
183,45367684,0,-0,0
184,45371048,0,-0,0
185,45374428,0,0,-0
186,45377796,0,0,0
187,45381168,0,-0,0
188,45384560,-0,-0,0
189,45387960,-0,-0,-0
190,45391348,-1,0,0
191,45394724,-1,-0,0
192,45398120,-1,-0,0
193,45401500,-1,-0,0
194,45404888,-1,-0,-0
195,45408324,-1,-0,0
196,45411708,-1,-0,0
197,45415100,-1,-0,0
198,45418508,-1,-0,0
199,45421872,-1,0,0
200,45425256,-1,0,-0
201,45428632,-0,-0,0
202,45432008,-0,0,0
203,45435372,-0,0,0
204,45438740,-0,0,0
205,45442124,-0,-0,0
206,45448644,-0,0,0
207,45452012,-0,0,0
208,45455392,-0,0,0
209,45458740,0,0,0
210,45462084,0,-0,0
211,45465452,0,0,0
212,45468820,0,-0,0
213,45472180,0,-0,0
214,45475540,0,-0,0
215,45478904,0,-0,0
216,45482264,0,-0,0
217,45485640,0,-0,-0
218,45489012,1,-0,0
219,45492388,1,0,0
220,45495736,1,0,0
221,45499072,0,0,0
222,45502408,0,0,0
223,45505768,0,-0,0
224,45509152,0,-0,0
225,45512532,-0,-0,0
226,45515916,-0,0,0
227,45519280,-0,0,-0
228,45522660,-0,-0,-0
229,45526072,-0,-0,-0
230,45529496,0,-0,0
231,45532876,0,-0,-0
232,45539424,-0,-0,-0
233,45542812,0,-0,0
234,45546168,0,-1,0
235,45549544,0,-0,0
236,45552912,0,-0,0
237,45556280,1,0,0
238,45559632,1,-0,0
239,45563008,1,-0,-0
240,45566384,1,-0,0
241,45569764,1,-0,-0
242,45573188,1,-0,-0
243,45576576,1,0,0
244,45579932,1,-0,0
245,45583304,2,-0,-0
246,45586688,1,-0,-0
247,45590060,2,-0,0
248,45593440,2,-0,-0
249,45596820,2,-0,0
250,45600188,2,-0,0
251,45603548,2,-0,0
252,45606920,2,-0,0
253,45610284,3,-1,0
254,45613664,3,-0,0
255,45617052,3,0,1
256,45620416,3,0,0
257,45626884,3,-0,0
258,45630260,3,-0,0
259,45633648,2,0,1
260,45637012,3,0,1
261,45640364,2,0,0
262,45643724,2,-0,0
263,45647092,2,0,0
264,45650440,2,0,0
265,45653796,1,-0,0
266,45657188,1,-0,0
267,45660580,1,-0,0
268,45663948,0,0,0
269,45667296,0,0,0
270,45670668,0,-0,0
271,45674060,-0,-0,0
272,45677452,-1,0,0
273,45680832,-1,0,0
274,45684216,-1,-0,0
275,45687616,-1,0,0
276,45690996,-1,0,0
277,45694372,-1,0,-0
278,45697748,-1,0,0
279,45701108,-1,0,0
280,45704484,-2,1,-0
281,45707872,-2,0,0
282,45711252,-2,0,0
283,45717832,-2,0,-0
284,45721208,-2,0,-0
285,45724588,-2,-0,-0
286,45727980,-1,0,0
287,45731344,-2,0,0
288,45734708,-2,1,0
289,45738088,-1,1,-0
290,45741456,-1,1,0
291,45744812,-2,0,-0
292,45748196,-1,-0,0
293,45751580,-1,-0,0
294,45754972,-1,0,-0
295,45758360,-1,0,0
296,45761724,-1,0,0
297,45765092,-1,-0,0
298,45768464,-1,0,-0
299,45771864,-0,-0,0
300,45775232,-0,0,0
301,45778592,-0,-0,-0
302,45782008,-0,-0,-0
303,45785412,0,-0,-0
304,45788780,1,0,-0
305,45792148,1,-0,-0
306,45795524,2,-0,0
307,45798900,2,-0,-0
308,45805428,3,0,-0
309,45808804,3,0,0
310,45812172,4,0,0
311,45815520,4,0,0
312,45818876,5,0,1
313,45822232,5,0,0
314,45825596,5,0,0
315,45828964,6,0,0
316,45832328,6,0,0
317,45835692,6,-0,1
318,45839068,6,0,1
319,45842444,6,0,1
320,45845808,5,0,0
321,45849168,5,0,0
322,45852532,5,0,0
323,45855904,5,0,0
324,45859272,5,0,0
325,45862624,4,0,0
326,45865992,4,0,0
327,45869332,3,0,0
328,45872712,3,0,0
329,45876096,3,-0,1
330,45879484,2,-0,0
331,45882844,1,0,0
332,45886196,1,0,0
333,45889568,1,0,0
334,45896052,-0,1,0
335,45899432,-1,1,-0
336,45902804,-1,1,0
337,45906176,-1,1,-0
338,45909576,-2,0,-0
339,45912968,-2,0,-0
340,45916376,-2,0,0
341,45919760,-2,0,-0
342,45923164,-3,0,-0
343,45926580,-3,-0,0
344,45929980,-3,0,0
345,45933368,-3,0,0
346,45936752,-3,0,0
347,45940124,-3,0,0
348,45943504,-3,0,0
349,45946908,-4,0,0
350,45950304,-3,0,-0
351,45953708,-4,0,-0
352,45957100,-3,0,0
353,45960492,-3,0,-0
354,45963888,-3,0,-0
355,45967284,-3,0,-0
356,45970684,-3,0,-0
357,45974088,-3,0,-0
358,45977468,-2,0,-0
359,45983852,-1,0,0
360,45987216,-1,0,-0
361,45990596,-1,0,-0
362,45993996,-1,0,0
363,45997360,-0,-0,0
364,46000760,-0,-0,0
365,46004124,0,0,0
366,46007484,1,0,0
367,46010828,1,0,0
368,46014156,1,0,0
369,46017516,1,0,0
370,46020864,1,0,0
371,46024220,1,-0,0
372,46027576,2,-0,0
373,46030960,1,-0,0
374,46034320,2,-0,0
375,46037688,2,-0,0
376,46041072,2,-0,0
377,46044444,2,-0,0
378,46047816,2,-0,0
379,46051188,2,0,0
380,46054556,1,0,0
381,46057896,1,0,0
382,46061244,1,0,0
383,46064612,1,0,0
384,46067980,1,0,0
385,46074364,1,-0,0
386,46077748,0,-0,0
387,46081132,0,0,0
388,46084480,-0,0,0
389,46087856,-0,0,0
390,46091232,-1,0,0
391,46094592,-1,0,0
392,46097960,-1,0,0
393,46101336,-1,0,0
394,46104716,-2,0,0
395,46108120,-2,-0,-0
396,46111524,-2,0,0
397,46114924,-2,0,1
398,46118300,-2,0,0
399,46121692,-3,0,-0
400,46125104,-3,0,0
401,46128492,-3,0,0
402,46131884,-3,0,0
403,46135260,-3,0,0
404,46138648,-3,0,0
405,46142016,-3,0,0
406,46145392,-3,0,0
407,46148776,-3,0,0
408,46152168,-3,0,-0
409,46155556,-3,0,0
410,46158948,-3,0,0
411,46165456,-2,0,-0
412,46168852,-2,0,-0
413,46172244,-2,-0,0
414,46175648,-2,0,-0
415,46179036,-2,0,0
416,46182408,-2,0,0
417,46185764,-1,0,0
418,46189128,-1,0,0
419,46192500,-1,0,0
420,46195884,-1,-0,0
421,46199268,-1,-0,0
422,46202640,-0,-0,0
423,46206036,-0,0,0
424,46209404,0,-0,0
425,46212764,0,-0,0
426,46216120,0,-0,0
427,46219480,0,0,0
428,46222848,1,-0,0
429,46226216,1,-0,0
430,46229588,1,-0,0
431,46232924,1,-0,0
432,46236284,1,0,0
433,46239624,1,0,0
434,46242972,1,0,0
435,46246316,1,-0,0
436,46252808,1,-0,0
437,46256184,1,0,0
438,46259532,1,-0,0
439,46262908,1,-0,0
440,46266260,1,-0,0
441,46269632,1,-0,0
442,46272996,1,-0,0
443,46276360,1,-0,0
444,46279736,1,-0,0
445,46283092,1,-0,0
446,46286432,1,-0,0
447,46289800,1,-0,0
448,46293172,1,-0,0
449,46296544,1,-0,0
450,46299912,1,-0,0
451,46303304,1,-0,0
452,46306672,1,-0,0
453,46310056,1,0,0
454,46313436,1,0,0
455,46316796,1,0,0
456,46320140,1,0,0
457,46323488,0,0,0
458,46326852,0,-0,0
459,46330228,-0,-0,0
460,46333588,-0,0,0
461,46336980,-1,0,0
462,46343480,-1,-0,0
463,46346872,-1,-0,-0
464,46350280,-1,0,0
465,46353672,-1,-0,0
466,46357068,-1,-0,-0
467,46360468,-1,-0,0
468,46363880,-1,-0,-0
469,46367284,-1,0,-0
470,46370680,-1,0,-0
471,46374072,-1,0,-0
472,46377468,-1,-0,-0
473,46380876,-0,-0,0
474,46384280,-0,-0,-0
475,46387676,0,-0,0
476,46391040,0,0,0
477,46394400,0,-0,0
478,46397768,1,-0,0
479,46401136,1,-0,0
480,46404500,1,-0,0
481,46407892,1,-0,-0
482,46411272,1,-0,0
483,46414640,1,-0,0
484,46418020,1,-0,0
485,46421384,1,-0,0
486,46424740,1,-0,0
487,46431212,2,-0,0
488,46434568,2,-0,0
489,46437924,2,-0,0
490,46441296,2,-1,0
491,46444684,2,-0,0
492,46448060,2,-0,0
493,46451432,2,-0,0
494,46454824,2,-0,0
495,46458204,2,-0,0
496,46461576,2,0,0
497,46464948,2,-0,0
498,46468340,2,-0,0
499,46471708,2,0,0
500,46475056,2,0,0
501,46478416,2,-0,0
502,46481780,2,-0,0
503,46485160,1,-0,0
504,46488528,1,-0,0
505,46491900,1,-0,0
506,46495252,1,-0,-0
507,46498644,1,-0,0
508,46502032,1,-0,0
509,46505408,0,-0,0
510,46508776,-0,-0,0
511,46512168,-0,0,0
512,46518688,0,-0,-0
513,46522068,-0,0,0
514,46525468,-0,0,0
515,46528828,-1,0,0
516,46532220,-1,0,-0
517,46535604,-0,0,-0
518,46538996,-0,0,-0
519,46542388,-1,0,-0
520,46545788,-0,-0,-0
521,46549204,-0,-0,-0
522,46552596,-0,-0,0
523,46556000,-0,0,-0
524,46559392,-0,0,0
525,46562772,-0,-0,0
526,46566144,-0,0,0
527,46569528,-0,0,-0
528,46572904,0,0,0
529,46576264,0,-0,0
530,46579632,0,0,0
531,46583000,0,-0,0
532,46586376,0,-0,0
533,46589744,0,-0,0
534,46593112,1,-0,0
535,46596480,0,-0,0
536,46599848,0,-0,0
537,46603216,1,-0,0
538,46609696,1,0,0
539,46613048,1,0,0
540,46616396,0,0,0
541,46619752,0,0,0
542,46623112,1,-0,0
543,46626472,0,0,-0
544,46629852,1,-0,0
545,46633240,1,-0,-0
546,46636636,1,0,-0
547,46640004,1,0,0
548,46643376,1,-0,0
549,46646760,1,-0,-0
550,46650152,1,0,0
551,46653496,1,0,0
552,46656840,1,0,0
553,46660196,1,0,0
554,46663556,1,0,0
555,46666916,1,0,0
556,46670268,1,-0,0
557,46673632,1,-0,0
558,46677004,1,-0,0
559,46680368,1,-0,0
560,46683760,1,0,-0
561,46687128,1,-0,0
562,46690484,1,0,0
563,46693852,1,0,0
564,46700196,1,-0,0
565,46703572,0,-0,0
566,46706948,1,-0,0
567,46710320,0,-0,0
568,46713684,0,0,1
569,46717056,-0,0,0
570,46720428,-0,0,0
571,46723804,-0,-0,0
572,46727196,-0,0,0
573,46730560,-1,0,0
574,46733928,-1,0,0
575,46737316,-1,-0,0
576,46740704,-1,0,0
577,46744080,-1,0,0
578,46747468,-1,-0,0
579,46750872,-1,-0,0
580,46754256,-2,-0,0
581,46757656,-2,-0,0
582,46761060,-2,-0,0
583,46764452,-2,-0,-0
584,46767860,-2,-0,0
585,46771252,-2,-0,0
586,46774620,-1,0,0
587,46777988,-1,0,-0
588,46781372,-1,0,-0
589,46787796,-1,1,-0
590,46791176,-1,1,-0
591,46794564,-1,0,0
592,46797960,-1,-0,-0
593,46801352,-0,-0,0
594,46804716,-0,-0,0
595,46808088,0,-0,0
596,46811452,0,-0,0
597,46814816,1,-0,0
598,46818176,1,-0,0
599,46821560,1,-0,0
600,46824924,1,-0,0
601,46828272,1,0,0
602,46831640,1,0,0
603,46834980,1,0,0
604,46838332,1,0,0
605,46841688,1,0,1
606,46845040,0,0,0
607,46848384,0,0,0
608,46851744,-0,0,-0
609,46855144,0,-0,0
610,46858516,-0,0,0
611,46861884,-0,0,0
612,46865276,-1,0,-0
613,46868668,-0,0,-0
614,46875184,-1,-0,0
615,46878576,-1,-0,-0
616,46882000,-2,-0,-0
617,46885408,-2,-0,-0
618,46888816,-2,-0,-0
619,46892240,-2,-0,0
620,46895628,-2,0,-0
621,46899028,-2,1,-0
622,46902440,-2,1,-0
623,46905836,-2,0,-0
624,46909232,-3,0,-0
625,46912640,-3,0,-1
626,46916036,-3,0,-0
627,46919420,-3,0,-0
628,46922832,-3,-0,0
629,46926232,-2,-0,0
630,46929624,-2,0,0
631,46933000,-2,0,-0
632,46936384,-2,0,-0
633,46939748,-1,0,0
634,46943136,-2,-0,0
635,46946528,-1,0,0
636,46949892,-1,0,0
637,46953252,-1,0,1
638,46956632,-1,-1,1
639,46963156,-0,0,0
640,46966520,-0,0,1
641,46969892,-1,0,1
642,46973264,-1,0,1
643,46976632,-0,-0,0
644,46980036,-0,-0,0
645,46983416,0,-0,0
646,46986792,-0,0,0
647,46990164,-0,0,0
648,46993556,-1,0,-0
649,46996952,-1,-0,-0
650,47000352,-2,-0,-0
651,47003772,-2,-0,-0
652,47007184,-2,0,-0
653,47010584,-3,0,-0
654,47013992,-3,0,-0
655,47017408,-4,-0,-0
656,47020816,-4,0,-0
657,47024224,-4,0,-1
658,47027624,-4,1,-1
659,47031012,-4,1,-1
660,47034408,-5,0,-1
661,47037796,-5,0,-0
662,47041184,-5,0,-0
663,47047700,-5,0,-0
664,47051088,-4,0,0
665,47054456,-4,0,0
666,47057832,-4,0,1
667,47061204,-3,0,1
668,47064568,-3,0,1
669,47067932,-2,0,1
670,47071304,-2,0,1
671,47074672,-1,-0,1
672,47078032,-1,0,1
673,47081416,-1,0,1
674,47084788,-1,-0,1
675,47088164,-1,-0,1
676,47091552,-0,-0,1
677,47094924,0,-0,1
678,47098276,1,0,0
679,47101608,0,0,0
680,47104956,-0,0,1
681,47108328,-1,1,2
682,47111692,-2,4,1
683,47115084,-3,4,1
684,47118472,-3,4,1
685,47121852,-3,3,-0
686,47125244,-3,4,-1
687,47128664,-3,4,-1
688,47135168,-1,4,-1
689,47138572,-0,4,-2
690,47141984,0,2,-2
691,47145364,0,1,-2
692,47148756,-1,1,-2
693,47152180,-2,-0,-3
694,47155580,-2,-1,-2
695,47158988,-1,-1,-2
696,47162380,-1,-1,-2
697,47165764,-0,-1,-1
698,47169160,-0,-1,-1
699,47172568,-1,-2,-0
700,47175972,-1,-2,0
701,47179364,-1,-1,1
702,47182748,0,-1,1
703,47186112,1,-2,1
704,47189456,2,-2,1
705,47192808,2,-1,1
706,47196180,2,-1,1
707,47199532,2,-1,2
708,47202900,2,-0,2
709,47206264,2,0,2
710,47209636,2,1,2
711,47212988,2,1,2
712,47216336,1,2,2
713,47222820,0,2,2
714,47226176,-0,1,1
715,47229544,-0,1,1
716,47232912,-0,1,2
717,47236272,-0,1,2
718,47239636,-0,0,2
719,47243008,-0,-1,2
720,47246404,-0,-1,2
721,47249772,-1,-1,2
722,47253140,-0,-2,2
723,47256524,-1,-2,2
724,47259908,-1,-1,2
725,47263288,-1,-0,2
726,47266656,-1,1,2
727,47270020,-1,1,1
728,47273372,-0,2,1
729,47276740,-1,2,1
730,47280104,-0,3,1
731,47283464,-0,3,1
732,47286824,0,2,2
733,47290184,1,2,2
734,47293528,2,2,2
735,47296884,3,2,3
736,47300244,3,1,3
737,47303620,4,1,4
738,47307008,4,1,4
739,47313504,5,1,4
740,47316884,5,1,4
741,47320272,5,1,4
742,47323628,4,1,4
743,47326992,4,2,4
744,47330380,4,1,5
745,47333744,3,1,5
746,47337108,2,2,5
747,47340472,2,2,5
748,47343828,2,2,5
749,47347196,0,2,5
750,47350552,0,2,5
751,47353924,-1,1,5
752,47357292,-1,1,4
753,47360668,-1,1,4
754,47364036,-1,1,3
755,47367424,-1,1,3
756,47370780,-1,0,2
757,47374148,-2,0,1
758,47377512,-2,0,1
759,47380872,-1,1,1
760,47384236,-1,1,1
761,47387588,-1,1,1
762,47390952,-1,2,1
763,47394328,-1,3,-0
764,47397724,-1,3,-1
765,47404136,-1,3,-1
766,47407532,-1,4,-0
767,47410932,-2,5,-1
768,47414332,-4,4,-2
769,47417748,-5,4,-2
770,47421148,-6,5,-2
771,47424568,-6,6,-2
772,47427972,-4,7,-2
773,47431372,-3,7,-1
774,47434776,-2,5,-1
775,47438172,-1,3,-1
776,47441548,-1,1,-0
777,47444940,-1,1,-1
778,47448316,-1,1,-1
779,47451692,1,-0,-1
780,47455068,2,-1,-1
781,47458456,2,0,-0
782,47461812,2,0,-0
783,47465180,2,-1,-1
784,47468580,2,-2,-0
785,47471968,2,-3,0
786,47475352,3,-3,1
787,47478740,4,-3,2
788,47482124,5,-3,2
789,47485508,5,-4,2
790,47491996,5,-5,2
791,47495396,6,-5,3
792,47498796,6,-5,3
793,47502196,6,-5,3
794,47505608,5,-5,3
795,47509008,5,-6,2
796,47512400,6,-6,2
797,47515804,6,-5,3
798,47519192,6,-5,2
799,47522580,5,-6,2
800,47525976,4,-6,2
801,47529372,3,-6,2
802,47532752,2,-6,2
803,47536132,2,-6,2
804,47539508,2,-6,2
805,47542908,1,-7,1
806,47546308,-0,-8,1
807,47549708,-1,-8,1
808,47553120,-2,-9,2
809,47556524,-3,-10,2
810,47559964,-3,-11,2
811,47563400,-3,-12,2
812,47566820,-4,-12,2
813,47570256,-4,-12,2
814,47573680,-4,-13,2
815,47585452,-1,-15,2
816,47588876,-1,-15,2
817,47592280,-1,-15,1
818,47595712,-1,-15,1
819,47599120,-0,-15,1
820,47602524,1,-15,2
821,47605916,2,-16,1
822,47609312,2,-15,1
823,47612684,1,-15,1
824,47616084,1,-14,1
825,47619476,1,-13,2
826,47622876,2,-13,3
827,47626304,2,-12,3
828,47629684,1,-12,3
829,47633088,-1,-11,3
830,47636536,-2,-10,4
831,47639968,-4,-9,4
832,47643372,-4,-9,4
833,47646788,-5,-8,4
834,47650196,-5,-7,4
835,47653468,-6,-6,4
836,47656900,-6,-5,4
837,47660300,-5,-5,4
838,47663704,-4,-5,2
839,47670240,-1,-3,3
840,47673612,0,-2,2
841,47676976,1,-2,3
842,47680348,3,-1,2
843,47683712,4,0,2
844,47687060,5,1,1
845,47690396,5,1,1
846,47693756,5,2,1
847,47697128,4,4,1
848,47700492,4,4,-0
849,47703880,3,5,-0
850,47707284,3,5,-1
851,47710656,3,5,-1
852,47714036,3,6,-2
853,47717448,3,6,-2
854,47720844,4,5,-2
855,47724244,4,5,-2
856,47727644,4,4,-2
857,47731044,4,3,-2
858,47734436,4,2,-2
859,47737832,5,2,-2
860,47741220,5,1,-3
861,47744608,6,-0,-3
862,47748016,6,-1,-2
863,47751408,6,-2,-2
864,47757928,6,-3,-1
865,47761328,7,-3,-1
866,47764736,7,-3,-1
867,47768144,7,-4,-1
868,47771556,6,-4,-0
869,47774956,5,-4,-0
870,47778360,3,-4,-0
871,47781616,2,-5,-0
872,47785028,1,-5,-0
873,47788448,0,-5,-1
874,47791856,-1,-5,-1
875,47795296,-2,-5,-1
876,47798576,-3,-5,-1
877,47802004,-3,-6,-1
878,47805428,-3,-6,-1
879,47808868,-2,-6,-1
880,47812276,-1,-6,0
881,47815696,-1,-7,2
882,47819100,-1,-7,3
883,47822476,0,-7,2
884,47825860,1,-7,3
885,47829260,3,-7,4
886,47832668,4,-7,4
887,47836080,4,-6,5
888,47839484,5,-5,6
889,47845996,8,-4,11
890,47849428,8,-4,12
891,47852824,7,-4,7
892,47856216,7,-4,7
893,47859608,8,-3,9
894,47863020,8,-3,9
895,47866412,8,-3,9
896,47869808,6,-2,10
897,47873224,4,-2,9
898,47876612,2,-1,8
899,47879984,1,-1,8
900,47883376,-0,-2,8
901,47886764,-1,-2,7
902,47890152,-4,-2,7
903,47893568,-6,-2,7
904,47896980,-7,-3,7
905,47900392,-8,-3,7
906,47903832,-9,-2,7
907,47907256,-10,-3,6
908,47910704,-11,-2,6
909,47914148,-12,-2,5
910,47917576,-13,-3,5
911,47921012,-14,-4,5
912,47924460,-14,-3,5
913,47931004,-14,-1,4
914,47934420,-14,-1,4
915,47937832,-13,-2,4
916,47941264,-13,-2,3
917,47944676,-13,-2,3
918,47948112,-13,-1,2
919,47951496,-13,0,1
920,47954900,-13,0,2
921,47958300,-12,1,3
922,47961708,-12,2,3
923,47965104,-11,3,2
924,47968508,-10,3,2
925,47971884,-9,2,2
926,47975260,-8,2,3
927,47978664,-7,2,3
928,47982056,-6,3,3
929,47985436,-4,3,3
930,47988828,-2,3,3
931,47992208,-1,4,3
932,47995588,-0,4,3
933,47998952,0,4,3
934,48002296,0,4,2
935,48005624,1,5,1
936,48008968,2,5,1
937,48012336,4,5,1
938,48018836,8,5,1
939,48022192,10,5,1
940,48025568,11,4,1
941,48028936,13,4,1
942,48032312,14,3,1
943,48035680,15,2,1
944,48039056,16,1,1
945,48042428,17,1,1
946,48045804,17,0,1
947,48049204,17,-0,0
948,48052584,16,-1,0
949,48055980,15,-1,-0
950,48059400,13,-2,-1
951,48062812,11,-2,-2
952,48066232,9,-2,-3
953,48069648,6,-3,-3
954,48073072,4,-4,-4
955,48076492,1,-5,-5
956,48079924,-1,-5,-5
957,48083372,-3,-4,-6
958,48086808,-5,-4,-7
959,48090244,-7,-5,-8
960,48093680,-9,-6,-8
961,48097120,-10,-6,-8
962,48103580,-11,-7,-7
963,48107020,-10,-8,-7
964,48110464,-9,-7,-8
965,48113896,-8,-7,-8
966,48117320,-8,-6,-8
967,48120760,-8,-6,-8
968,48124196,-7,-7,-7
969,48127616,-6,-7,-6
970,48131056,-5,-7,-6
971,48134488,-5,-6,-6
972,48137928,-4,-6,-5
973,48141376,-3,-6,-5
974,48144824,-3,-5,-4
975,48148252,-3,-5,-3
976,48151700,-3,-5,-3
977,48155136,-3,-5,-3
978,48158572,-3,-5,-2
979,48161996,-3,-5,-2
980,48165420,-3,-5,-1
981,48168836,-2,-5,-2
982,48172248,-2,-4,-1
983,48175668,-1,-4,-1
984,48179104,-1,-3,-1
985,48182528,-1,-3,-1
986,48189072,-3,-3,-1
987,48192484,-3,-1,-0
988,48195908,-3,-1,-1
989,48199328,-3,0,-1
990,48202724,-4,0,-1
991,48206128,-5,1,-1
992,48209532,-6,1,-1
993,48212932,-8,1,-1
994,48216336,-9,1,-1
995,48219728,-9,1,-2
996,48223136,-9,2,-2
997,48226528,-9,2,-1
998,48229920,-9,2,-1
999,48233312,-9,1,-1
1000,48236720,-9,0,-1
1001,48240132,-9,-1,-0
1002,48243580,-10,-2,-0
1003,48247036,-10,-2,-1
1004,48250488,-9,-1,-1
1005,48253924,-9,-1,-1
1006,48257356,-8,-1,-1
1007,48260784,-8,-1,-1
1008,48264232,-8,-1,-1
1009,48270808,-8,0,-2
1010,48274224,-7,1,-2
1011,48277656,-7,1,-2
1012,48281084,-6,0,-2
1013,48284524,-7,0,-2
1014,48287968,-7,1,-3
1015,48291384,-8,1,-3
1016,48294804,-8,1,-3
1017,48298208,-7,0,-3
1018,48301624,-6,-0,-3
1019,48305064,-6,-0,-3
1020,48308504,-7,-1,-4
1021,48311932,-6,-1,-3
1022,48315368,-7,-2,-3
1023,48318816,-7,-3,-3
1024,48322272,-7,-3,-4
1025,48325736,-7,-3,-4
1026,48329188,-7,-3,-4
1027,48332640,-7,-3,-3
1028,48336104,-8,-4,-3
1029,48339544,-8,-5,-3
1030,48343000,-9,-5,-3
1031,48346464,-9,-6,-3
1032,48353060,-11,-6,-3
1033,48356520,-11,-5,-1
1034,48359976,-11,-5,-1
1035,48363436,-11,-5,-1
1036,48366896,-11,-5,-1
1037,48370368,-11,-4,0
1038,48373820,-10,-4,1
1039,48377268,-10,-4,1
1040,48380708,-9,-4,2
1041,48384156,-9,-4,2
1042,48387592,-8,-4,3
1043,48391016,-7,-4,4
1044,48394464,-6,-4,4
1045,48397888,-5,-4,5
1046,48401316,-4,-4,5
1047,48404744,-3,-4,5
1048,48408172,-3,-4,5
1049,48411592,-4,-5,5
1050,48415032,-5,-5,5
1051,48418460,-6,-5,5
1052,48421904,-7,-4,5
1053,48425332,-7,-4,4
1054,48431884,-6,-3,4
1055,48435340,-6,-3,4
1056,48438772,-5,-3,3
1057,48442204,-4,-3,3
1058,48445632,-2,-3,3
1059,48449044,-0,-3,4
1060,48452452,2,-3,4
1061,48455868,3,-2,3
1062,48459268,4,-2,3
1063,48462664,5,-3,3
1064,48466080,6,-3,3
1065,48469476,6,-3,3
1066,48472868,7,-2,3
1067,48476288,7,-2,3
1068,48479688,8,-2,2
1069,48483084,9,-1,2
1070,48486488,10,-0,2
1071,48489920,10,-0,2
1072,48493328,11,0,2
1073,48496740,11,0,2
1074,48500144,10,0,1
1075,48503520,9,1,2
1076,48506900,8,0,2
1077,48510280,8,-0,1
1078,48516788,7,-1,1
1079,48520204,7,-1,2
1080,48523612,7,-1,2
1081,48527024,6,-1,2
1082,48530460,5,-1,2
1083,48533876,4,-0,2
1084,48537268,3,0,1
1085,48540668,3,1,1
1086,48544040,2,1,0
1087,48547424,1,1,-1
1088,48550804,0,1,-1
1089,48554200,0,-0,-2
1090,48557616,-0,-1,-2
1091,48561036,0,-0,-3
1092,48564456,1,-1,-3
1093,48567900,2,-1,-3
1094,48571328,3,-1,-3
1095,48574752,4,-1,-3
1096,48578164,4,-2,-4
1097,48581596,5,-3,-4
1098,48585024,5,-3,-3
1099,48588444,5,-4,-3
1100,48591888,6,-4,-3
1101,48595320,7,-4,-3
1102,48601880,9,-4,-4
1103,48605316,9,-6,-3
1104,48608764,9,-7,-3
1105,48612208,9,-8,-3
1106,48615648,9,-8,-2
1107,48619084,10,-9,-2
1108,48622528,11,-9,-2
1109,48625996,11,-10,-2
1110,48629452,11,-9,-2
1111,48632904,11,-9,-1
1112,48636360,11,-10,-1
1113,48639828,10,-11,-0
1114,48643292,10,-11,0
1115,48646744,10,-12,0
1116,48650196,9,-12,1
1117,48653636,8,-12,1
1118,48657064,7,-13,1
1119,48660512,7,-13,0
1120,48663940,5,-14,1
1121,48667360,4,-15,0
1122,48670796,3,-15,-0
1123,48674236,1,-16,-0
1124,48677676,1,-16,-1
1125,48684252,-0,-17,-2
1126,48687716,-1,-17,-2
1127,48691192,-1,-18,-2
1128,48694656,-2,-18,-3
1129,48698120,-2,-17,-3
1130,48701604,-2,-16,-4
1131,48705080,-3,-16,-4
1132,48708568,-3,-15,-5
1133,48712036,-4,-14,-5
1134,48715504,-4,-13,-5
1135,48718980,-4,-13,-5
1136,48722444,-4,-12,-6
1137,48725924,-4,-12,-5
1138,48729392,-5,-11,-5
1139,48732856,-5,-10,-6
1140,48736348,-5,-9,-6
1141,48739788,-5,-9,-5
1142,48743240,-6,-8,-5
1143,48746704,-6,-8,-5
1144,48750148,-6,-7,-5
1145,48753596,-6,-7,-5
1146,48760048,-7,-5,-5
1147,48763496,-8,-4,-5
1148,48766940,-8,-3,-5
1149,48770388,-8,-3,-5
1150,48773820,-9,-2,-5
1151,48777260,-9,-1,-6
1152,48780700,-9,-1,-6
1153,48784132,-9,-0,-6
1154,48787576,-9,0,-6
1155,48790992,-9,0,-6
1156,48794404,-9,1,-6
1157,48797832,-9,1,-6
1158,48801240,-9,2,-6
1159,48804672,-9,3,-6
1160,48808104,-8,3,-6
1161,48811532,-7,4,-6
1162,48814952,-7,4,-6
1163,48818388,-6,5,-6
1164,48821816,-5,5,-6
1165,48825256,-5,5,-6
1166,48828684,-3,5,-6
1167,48832116,-2,5,-6
1168,48835532,-1,6,-6
1169,48841972,0,6,-6
1170,48845372,1,5,-6
1171,48848764,2,5,-6
1172,48852180,2,4,-6
1173,48855588,3,4,-7
1174,48859004,3,4,-7
1175,48862424,3,4,-7
1176,48865848,3,3,-7
1177,48869264,2,3,-7
1178,48872688,2,3,-7
1179,48876100,3,2,-7
1180,48879516,3,2,-7
1181,48882932,3,2,-7
1182,48886332,3,1,-8
1183,48889752,3,1,-7
1184,48893176,3,0,-7
1185,48896600,3,-1,-8
1186,48900024,3,-1,-7
1187,48903464,4,-2,-7
1188,48906900,4,-2,-7
1189,48910348,4,-3,-7
1190,48913780,3,-4,-7
1191,48917220,3,-4,-7
1192,48920652,2,-4,-7
1193,48927228,0,-5,-7
1194,48930672,-1,-5,-7
1195,48934132,-1,-5,-7
1196,48937584,-1,-5,-6
1197,48941024,-1,-5,-7
1198,48944476,-1,-4,-7
1199,48947908,-0,-4,-6
1200,48951352,1,-5,-6
1201,48954764,2,-5,-6
1202,48958188,2,-5,-6
1203,48961628,3,-5,-6
1204,48965056,4,-6,-6
1205,48968488,5,-6,-6
1206,48971940,5,-6,-6
1207,48975384,5,-7,-6
1208,48978816,4,-7,-6
1209,48982252,4,-7,-7
1210,48985688,3,-7,-7
1211,48989108,2,-7,-7
1212,48992536,1,-7,-7
1213,48995952,0,-7,-8
1214,48999372,-1,-6,-8
1215,49002812,-2,-6,-8
1216,49009380,-4,-5,-8
1217,49012836,-5,-5,-9
1218,49016276,-5,-5,-9
1219,49019716,-5,-4,-9
1220,49023172,-5,-4,-9
1221,49026620,-5,-4,-9
1222,49030064,-4,-4,-9
1223,49033516,-3,-4,-9
1224,49036948,-2,-4,-9
1225,49040392,-2,-5,-10
1226,49043840,-1,-4,-10
1227,49047316,-1,-4,-10
1228,49050768,-0,-5,-10
1229,49054216,-0,-4,-10
1230,49057668,1,-5,-11
1231,49061088,1,-4,-11
1232,49064516,1,-4,-11
1233,49067944,0,-4,-11
1234,49071372,1,-4,-11
1235,49074800,0,-3,-11
1236,49078236,0,-3,-10
1237,49081668,0,-3,-11
1238,49088208,-1,-2,-11
1239,49091656,-1,-2,-10
1240,49095084,-2,-2,-10
1241,49098520,-2,-2,-10
1242,49101980,-3,-2,-10
1243,49105428,-4,-1,-10
1244,49108900,-4,-1,-10
1245,49112356,-5,-1,-10
1246,49115804,-5,-0,-10
1247,49119264,-5,-0,-11
1248,49122712,-5,0,-11
1249,49126136,-5,0,-11
1250,49129560,-4,1,-11
1251,49132992,-4,1,-12
1252,49136436,-3,1,-12
1253,49139868,-3,1,-11
1254,49143300,-2,0,-11
1255,49146732,-2,1,-11
1256,49150184,-2,1,-12
1257,49153608,-2,2,-11
1258,49157052,-3,2,-12
1259,49160508,-3,3,-12
1260,49167076,-4,4,-12
1261,49170528,-5,4,-12
1262,49173964,-5,4,-13
1263,49177412,-5,4,-13
1264,49180872,-5,4,-13
1265,49184320,-5,4,-13
1266,49187772,-5,4,-13
1267,49191232,-5,4,-13
1268,49194684,-4,4,-13
1269,49198148,-4,4,-13
1270,49201588,-4,3,-14
1271,49205036,-4,3,-14
1272,49208480,-4,3,-14
1273,49211924,-4,2,-14
1274,49215360,-3,2,-14
1275,49218792,-3,2,-14
1276,49222220,-3,2,-15
1277,49225656,-3,2,-15
1278,49229104,-3,2,-15
1279,49232544,-3,2,-15
1280,49235984,-3,2,-15
1281,49239424,-3,2,-15
1282,49246012,-3,2,-16
1283,49249472,-3,2,-16
1284,49252920,-3,3,-16
1285,49256376,-4,2,-16
1286,49259844,-4,3,-16
1287,49263304,-4,3,-17
1288,49266760,-4,3,-16
1289,49270196,-4,2,-17
1290,49273644,-4,2,-17
1291,49277100,-4,2,-18
1292,49280548,-4,2,-18
1293,49283984,-5,1,-18
1294,49287436,-4,1,-19
1295,49290884,-4,1,-19
1296,49294332,-4,0,-19
1297,49297784,-4,0,-19
1298,49301220,-4,0,-19
1299,49304684,-3,0,-19
1300,49308144,-3,-0,-19
1301,49311608,-3,0,-19
1302,49315052,-3,0,-20
1303,49318488,-3,0,-20
1304,49321928,-3,1,-20
1305,49328504,-4,2,-21
1306,49331944,-4,2,-21
1307,49335396,-4,2,-21
1308,49338840,-4,3,-22
1309,49342292,-4,3,-22
1310,49345756,-4,3,-23
1311,49349212,-4,3,-24
1312,49352672,-4,3,-25
1313,49356136,-4,3,-25
1314,49359600,-3,3,-26
1315,49363068,-3,2,-26
1316,49366516,-2,2,-27
1317,49369968,-2,2,-28
1318,49373404,-2,1,-28
1319,49376848,-2,1,-28
1320,49380284,-2,0,-29
1321,49383724,-2,0,-29
1322,49387168,-2,-0,-30
1323,49390652,-3,-0,-31
1324,49394104,-4,-0,-31
1325,49397580,-5,-1,-32
1326,49401060,-6,-1,-32
1327,49410120,-7,-2,-32
1328,49413572,-7,-1,-32
1329,49417044,-7,-2,-32
1330,49420516,-7,-1,-32
1331,49423980,-7,-1,-31
1332,49427472,-7,-2,-30
1333,49430932,-7,-2,-30
1334,49434404,-7,-2,-29
1335,49437888,-6,-1,-29
1336,49441360,-6,-2,-28
1337,49444852,-5,-2,-28
1338,49448336,-5,-2,-28
1339,49451824,-4,-2,-27
1340,49455320,-4,-2,-27
1341,49458824,-3,-2,-27
1342,49462328,-3,-2,-26
1343,49465796,-3,-2,-26
1344,49469300,-3,-2,-27
1345,49472776,-3,-2,-27
1346,49476252,-3,-1,-28
1347,49479744,-4,-1,-28
1348,49487604,-3,0,-29
1349,49491052,-3,1,-29
1350,49494504,-3,1,-29
1351,49497956,-3,2,-30
1352,49501408,-2,2,-31
1353,49504856,-2,2,-31
1354,49508320,-2,3,-32
1355,49511784,-2,3,-32
1356,49515236,-1,3,-33
1357,49518692,-1,3,-34
1358,49522128,-1,4,-34
1359,49525568,-1,4,-34
1360,49528896,-1,4,-35
1361,49532336,-2,5,-35
1362,49535804,-2,5,-36
1363,49539292,-3,6,-37
1364,49542756,-4,6,-37
1365,49546216,-5,7,-38
1366,49549684,-6,7,-38
1367,49553140,-7,7,-39
1368,49556612,-8,8,-40
1369,49560076,-9,8,-40
1370,49567172,-10,9,-40
1371,49570672,-11,9,-41
1372,49574148,-11,9,-41
1373,49577620,-11,9,-41
1374,49581124,-11,9,-41
1375,49584604,-10,9,-41
1376,49588112,-10,9,-42
1377,49591596,-9,9,-41
1378,49595056,-8,9,-41
1379,49598532,-7,9,-41
1380,49601996,-6,9,-41
1381,49605460,-5,8,-41
1382,49608936,-3,8,-41
1383,49612392,-2,8,-41
1384,49615852,-2,8,-41
1385,49619316,-1,7,-41
1386,49622768,0,7,-41
1387,49626204,0,7,-41
1388,49629624,0,6,-41
1389,49633048,1,6,-41
1390,49636488,1,6,-41
1391,49639916,0,5,-42
1392,49643360,-0,5,-41
1393,49651000,-3,5,-43
1394,49654456,-4,5,-43
1395,49657932,-5,5,-44
1396,49661388,-6,4,-45
1397,49664860,-7,5,-46
1398,49668328,-7,4,-46
1399,49671800,-7,4,-47
1400,49675260,-7,4,-48
1401,49678728,-7,3,-49
1402,49682200,-7,3,-50
1403,49685684,-6,3,-50
1404,49689148,-5,3,-51
1405,49692616,-4,2,-51
1406,49696080,-3,2,-52
1407,49699532,-2,1,-52
1408,49703004,-1,1,-53
1409,49706464,-1,1,-53
1410,49709920,0,1,-53
1411,49713376,1,1,-54
1412,49716800,1,1,-54
1413,49720228,0,1,-54
1414,49723660,0,1,-54
1415,49730512,-1,1,-55
1416,49733964,-1,1,-55
1417,49737416,-2,1,-55
1418,49740888,-3,2,-56
1419,49744348,-3,1,-56
1420,49747804,-3,1,-56
1421,49751272,-3,1,-56
1422,49754740,-3,0,-55
1423,49758216,-2,-0,-55
1424,49761708,-2,-0,-55
1425,49765160,-1,-0,-55
1426,49768616,-1,-0,-55
1427,49772080,-1,-0,-55
1428,49775568,0,-1,-55
1429,49779032,0,-1,-55
1430,49782444,1,-1,-54
1431,49785892,1,-1,-54
1432,49789328,1,-1,-54
1433,49792768,1,-1,-54
1434,49796208,2,-1,-55
1435,49799648,1,-1,-54
1436,49803100,1,-0,-54
1437,49809676,-1,0,-54
1438,49813132,-1,0,-55
1439,49816560,-1,1,-55
1440,49820004,-2,1,-55
1441,49823444,-2,2,-55
1442,49826892,-2,2,-55
1443,49830344,-2,2,-55
1444,49833812,-2,2,-55
1445,49837300,-3,3,-56
1446,49840752,-2,3,-55
1447,49844212,-2,3,-56
1448,49847652,-2,3,-55
1449,49851092,-1,3,-56
1450,49854568,-1,4,-56
1451,49858028,-1,4,-56
1452,49861476,-0,4,-56
1453,49864940,-0,4,-55
1454,49868404,0,4,-55
1455,49871832,1,4,-55
1456,49875268,1,3,-55
1457,49878692,0,3,-55
1458,49882148,0,3,-54
1459,49885580,-0,3,-54
1460,49892148,-1,3,-54
1461,49895620,-2,2,-55
1462,49899072,-3,2,-54
1463,49902536,-4,2,-55
1464,49906000,-4,2,-55
1465,49909452,-6,2,-55
1466,49912928,-7,2,-56
1467,49916396,-7,2,-56
1468,49919872,-8,2,-56
1469,49923344,-9,2,-57
1470,49926828,-10,2,-57
1471,49930332,-10,2,-57
1472,49933800,-10,2,-57
1473,49937300,-10,2,-57
1474,49940788,-10,2,-57
1475,49944276,-10,2,-57
1476,49947772,-9,2,-57
1477,49951244,-8,2,-57
1478,49954712,-7,2,-56
1479,49958172,-6,2,-56
1480,49961640,-5,1,-56
1481,49965092,-5,1,-56
1482,49971672,-3,2,-55
1483,49975136,-2,2,-55
1484,49978588,-2,2,-55
1485,49982032,-2,2,-54
1486,49985492,-1,2,-54
1487,49988952,-2,3,-54
1488,49992408,-2,4,-54
1489,49995880,-1,4,-54
1490,49999336,-1,4,-54
1491,50002792,-2,5,-54
1492,50006264,-2,5,-54
1493,50009720,-3,5,-54
1494,50013180,-3,5,-54
1495,50016656,-3,5,-55
1496,50020104,-3,5,-55
1497,50023588,-3,5,-55
1498,50027052,-3,5,-56
1499,50030524,-4,5,-56
1500,50034004,-4,5,-56
1501,50037480,-4,5,-56
1502,50040956,-4,5,-56
1503,50044444,-3,6,-56
1504,50050924,-3,6,-56
1505,50054384,-2,7,-56
1506,50057868,-2,7,-55
1507,50061344,-2,8,-55
1508,50064804,-2,8,-55
1509,50068272,-2,9,-55
1510,50071756,-2,9,-55
1511,50075216,-2,10,-55
1512,50078704,-2,10,-56
1513,50082176,-1,11,-56
1514,50085640,-1,11,-55
1515,50089132,-1,11,-56
1516,50092608,-1,12,-56
1517,50096092,-0,12,-56
1518,50099556,0,13,-56
1519,50103004,1,13,-57
1520,50106468,2,13,-57
1521,50109932,2,13,-57
1522,50113396,3,13,-57
1523,50116860,4,12,-57
1524,50120332,5,12,-57
1525,50123808,5,12,-58
1526,50130284,7,12,-58
1527,50133760,7,12,-58
1528,50137240,7,12,-58
1529,50140708,8,12,-59
1530,50144176,8,11,-59
1531,50147644,7,12,-60
1532,50151100,7,11,-60
1533,50154564,7,11,-60
1534,50158020,6,11,-61
1535,50161480,6,11,-61
1536,50164944,5,11,-62
1537,50168392,5,11,-62
1538,50171848,4,11,-62
1539,50175304,4,10,-62
1540,50178764,3,10,-63
1541,50182232,3,9,-63
1542,50185656,3,9,-63
1543,50189084,2,8,-63
1544,50192556,3,8,-63
1545,50195988,3,7,-63
1546,50199420,3,7,-62
1547,50202868,3,6,-62
1548,50214720,3,6,-62
1549,50218164,3,6,-62
1550,50221604,3,6,-61
1551,50225036,3,6,-61
1552,50228468,3,6,-61
1553,50231892,3,6,-60
1554,50235340,3,6,-60
1555,50238776,3,6,-60
1556,50242208,3,6,-59
1557,50245656,3,6,-59
1558,50249088,2,6,-59
1559,50252376,2,6,-59
1560,50255808,2,7,-59
1561,50259240,1,7,-59
1562,50262676,1,7,-59
1563,50266120,0,7,-59
1564,50269560,-0,7,-59
1565,50273008,-0,8,-59
1566,50276460,-1,8,-59
1567,50279912,-1,8,-58
1568,50283356,-1,8,-58
1569,50286796,-1,8,-58
1570,50290252,-1,8,-58
1571,50296908,-0,9,-57
1572,50300336,0,9,-56
1573,50303628,1,9,-56
1574,50307060,1,9,-55
1575,50310476,1,9,-55
1576,50313900,2,10,-54
1577,50317356,2,10,-54
1578,50320808,2,10,-53
1579,50324256,2,10,-53
1580,50327716,2,10,-53
1581,50331156,1,10,-52
1582,50334608,2,10,-52
1583,50338056,1,10,-52
1584,50341512,2,10,-52
1585,50344956,1,9,-52
1586,50348380,1,9,-51
1587,50351808,1,9,-51
1588,50355260,1,9,-51
1589,50358692,0,8,-51
1590,50362116,0,8,-51
1591,50365584,0,8,-51
1592,50369020,0,8,-51
1593,50372480,-0,8,-51
1594,50379060,-1,8,-50
1595,50382532,-1,8,-50
1596,50385996,-1,8,-50
1597,50389464,-1,8,-49
1598,50392924,-1,7,-49
1599,50396392,-1,8,-49
1600,50399852,-2,8,-49
1601,50403312,-2,7,-49
1602,50406776,-2,7,-48
1603,50410216,-2,7,-48
1604,50413692,-2,7,-48
1605,50417148,-2,7,-48
1606,50420596,-2,7,-48
1607,50424056,-2,7,-48
1608,50427504,-2,7,-48
1609,50430968,-2,7,-48
1610,50434436,-2,7,-47
1611,50437904,-3,7,-47
1612,50441384,-2,7,-47
1613,50444836,-2,7,-47
1614,50448296,-2,7,-47
1615,50451744,-2,7,-47
1616,50458312,-2,7,-47
1617,50461756,-1,7,-47
1618,50465208,-1,7,-47
1619,50468664,-1,7,-47
1620,50472124,-0,6,-47
1621,50475568,-0,6,-47
1622,50479020,0,6,-47
1623,50482452,1,6,-47
1624,50485880,1,6,-47
1625,50489316,1,6,-47
1626,50492756,1,6,-47
1627,50496184,0,6,-46
1628,50499644,-0,6,-46
1629,50503100,-0,6,-47
1630,50506540,-1,6,-46
1631,50510004,-1,6,-47
1632,50513452,-1,6,-47
1633,50516908,-2,6,-47
1634,50520372,-2,6,-47
1635,50523832,-2,6,-47
1636,50527308,-2,5,-47
1637,50530772,-3,5,-47
1638,50534240,-2,5,-47
1639,50540836,-2,4,-47
1640,50544288,-2,4,-47
1641,50547756,-2,4,-47
1642,50551204,-2,4,-46
1643,50554668,-2,4,-46
1644,50558140,-2,4,-46
1645,50561584,-2,4,-46
1646,50565036,-2,4,-46
1647,50568496,-1,4,-46
1648,50571948,-1,4,-45
1649,50575412,-1,5,-45
1650,50578876,-0,5,-45
1651,50582324,-0,5,-45
1652,50585796,-0,5,-45
1653,50589244,0,5,-44
1654,50592676,0,5,-44
1655,50596100,0,4,-44
1656,50599540,0,4,-44
1657,50602992,0,4,-44
1658,50606436,-0,5,-44
1659,50609876,-1,5,-44
1660,50613332,-1,5,-45
1661,50619916,-2,6,-45
1662,50623376,-2,6,-45
1663,50626848,-2,6,-45
1664,50630312,-3,6,-45
1665,50633780,-2,6,-45
1666,50637268,-2,6,-45
1667,50640724,-2,6,-45
1668,50644188,-1,6,-45
1669,50647640,-0,6,-45
1670,50651096,-0,6,-44
1671,50654552,0,6,-44
1672,50657980,0,6,-44
1673,50661432,1,6,-44
1674,50664860,1,6,-43
1675,50668284,1,6,-44
1676,50671728,1,6,-44
1677,50675160,1,6,-44
1678,50678580,1,6,-44
1679,50682020,0,6,-44
1680,50685460,0,6,-44
1681,50688908,-0,6,-44
1682,50692352,-0,6,-44
1683,50695804,-1,6,-44
1684,50702272,-1,6,-44
1685,50705724,-1,6,-44
1686,50709180,-1,6,-44
1687,50712636,-1,6,-43
1688,50716096,-1,6,-43
1689,50719548,-1,6,-43
1690,50723012,-1,6,-43
1691,50726448,-1,5,-42
1692,50729892,-1,6,-42
1693,50733332,-1,5,-42
1694,50736784,-1,5,-42
1695,50740236,-1,5,-42
1696,50743680,-1,5,-41
1697,50747124,-0,5,-41
1698,50750592,-0,5,-41
1699,50754036,0,5,-41
1700,50757468,0,5,-41
1701,50760920,-0,5,-41
1702,50764360,0,5,-41
1703,50767796,-0,5,-40
1704,50771252,-1,5,-41
1705,50774696,-1,5,-41
1706,50781356,-1,5,-41
1707,50784796,-0,4,-41
1708,50788240,-0,4,-42
1709,50791700,-0,4,-42
1710,50795152,-0,4,-42
1711,50798600,0,4,-42
1712,50802024,1,4,-42
1713,50805444,1,4,-41
1714,50808884,1,4,-42
1715,50812304,1,4,-41
1716,50815724,2,4,-41
1717,50819160,2,4,-41
1718,50822576,2,4,-40
1719,50826000,2,4,-40
1720,50829428,2,3,-40
1721,50832872,1,3,-40
1722,50836308,1,3,-40
1723,50839752,0,3,-39
1724,50843200,-0,3,-39
1725,50846656,-1,3,-39
1726,50850112,-1,3,-38
1727,50853572,-2,3,-38
1728,50857044,-2,3,-38
1729,50863628,-3,3,-37
1730,50867088,-3,4,-37
1731,50870548,-3,4,-37
1732,50874000,-3,4,-36
1733,50877452,-2,4,-36
1734,50880908,-2,4,-35
1735,50884344,-2,4,-35
1736,50887808,-1,5,-35
1737,50891260,-1,5,-35
1738,50894724,-1,5,-35
1739,50898188,-0,5,-34
1740,50901636,0,5,-34
1741,50905072,0,5,-35
1742,50908524,-0,5,-34
1743,50911968,0,5,-34
1744,50915412,-0,5,-34
1745,50918876,-1,5,-35
1746,50922332,-1,5,-35
1747,50925780,-1,5,-35
1748,50929236,-2,5,-35
1749,50932688,-2,5,-35
1750,50936156,-2,5,-36
1751,50939596,-1,5,-35
1752,50946192,-1,4,-35
1753,50949652,-1,4,-35
1754,50953096,-1,4,-35
1755,50956544,-1,3,-35
1756,50959996,-1,3,-35
1757,50963444,-0,3,-34
1758,50966908,-0,3,-34
1759,50970344,-0,2,-33
1760,50973796,0,2,-33
1761,50977208,0,3,-32
1762,50980652,-0,3,-32
1763,50984112,0,3,-32
1764,50987540,-0,3,-31
1765,50990988,-1,3,-31
1766,50994432,-1,3,-31
1767,50997884,-1,3,-30
1768,51001332,-2,3,-30
1769,51004792,-2,4,-30
1770,51008248,-2,3,-30
1771,51011700,-2,4,-30
1772,51015140,-2,3,-30
1773,51018600,-2,3,-30
1774,51025164,-1,3,-29
1775,51028624,-1,2,-29
1776,51032096,-1,2,-29
1777,51035524,-0,2,-28
1778,51038960,-0,2,-28
1779,51042400,-0,2,-28
1780,51045828,0,2,-28
1781,51049252,-0,2,-28
1782,51052720,-0,2,-28
1783,51056172,-1,3,-28
1784,51059632,-1,3,-29
1785,51063084,-0,3,-29
1786,51066544,-0,4,-29
1787,51070004,-1,4,-29
1788,51073456,-0,4,-30
1789,51076908,-0,5,-30
1790,51080388,-0,5,-30
1791,51083832,0,5,-30
1792,51087268,0,5,-31
1793,51090708,1,5,-31
1794,51094156,1,5,-31
1795,51097596,1,5,-31
1796,51101028,1,4,-31
1797,51107548,1,4,-32
1798,51110980,0,3,-31
1799,51114416,0,3,-31
1800,51117852,1,2,-31
1801,51121288,1,2,-31
1802,51124728,1,2,-31
1803,51128152,1,2,-30
1804,51131580,1,2,-29
1805,51135000,1,1,-29
1806,51138424,1,1,-28
1807,51141848,1,1,-27
1808,51145264,1,1,-26
1809,51148676,1,0,-26
1810,51152096,1,0,-25
1811,51155500,1,0,-24
1812,51158916,1,0,-24
1813,51162340,0,0,-23
1814,51165756,-0,0,-23
1815,51169192,-0,0,-22
1816,51172636,-0,1,-22
1817,51176072,-1,1,-21
1818,51179496,-1,0,-21
1819,51182932,-1,0,-21
1820,51189524,-1,-0,-20
1821,51193008,-0,-0,-20
1822,51196456,0,-0,-19
1823,51199896,0,-1,-19
1824,51203344,1,-1,-19
1825,51206780,2,-1,-19
1826,51210224,2,-1,-18
1827,51213668,3,-1,-18
1828,51217104,3,-1,-18
1829,51220548,4,-0,-18
1830,51223980,3,-0,-18
1831,51227412,4,-0,-17
1832,51230868,4,0,-17
1833,51234280,3,0,-17
1834,51237704,3,1,-17
1835,51241148,3,1,-16
1836,51244564,3,1,-16
1837,51247968,2,1,-16
1838,51251376,2,2,-16
1839,51254792,1,2,-15
1840,51258220,1,2,-15
1841,51261652,1,2,-15
1842,51268208,0,2,-14
1843,51271628,-0,2,-13
1844,51275072,-1,3,-13
1845,51278496,-1,3,-13
1846,51281936,-2,3,-12
1847,51285380,-2,3,-12
1848,51288828,-3,4,-12
1849,51292288,-3,4,-12
1850,51295732,-3,5,-11
1851,51299172,-4,5,-11
1852,51302628,-4,6,-11
1853,51306068,-4,6,-11
1854,51309508,-4,7,-11
1855,51312956,-4,7,-11
1856,51316396,-4,8,-11
1857,51319840,-3,8,-11
1858,51323260,-3,8,-11
1859,51326692,-2,9,-10
1860,51330136,-2,9,-10
1861,51333564,-2,9,-10
1862,51337004,-1,10,-10
1863,51340472,-1,10,-10
1864,51346928,-1,10,-10
1865,51350392,-1,11,-10
1866,51353852,-1,11,-10
1867,51357308,-1,11,-10
1868,51360792,-1,11,-10
1869,51364252,-2,12,-11
1870,51367716,-2,12,-11
1871,51371196,-3,12,-12
1872,51374660,-3,12,-12
1873,51378144,-4,11,-12
1874,51381616,-4,12,-13
1875,51385072,-4,12,-13
1876,51388536,-5,12,-13
1877,51391996,-5,12,-13
1878,51395472,-4,12,-13
1879,51398932,-4,12,-13
1880,51402384,-4,12,-13
1881,51405864,-3,12,-12
1882,51409340,-3,12,-12
1883,51412800,-2,12,-11
1884,51416252,-2,12,-10
1885,51419684,-1,12,-9
1886,51426152,0,12,-7
1887,51429576,1,12,-6
1888,51432976,1,12,-5
1889,51436388,2,12,-3
1890,51439808,3,12,-2
1891,51443204,3,12,-1
1892,51446620,4,12,-0
1893,51450044,4,12,1
1894,51453432,4,12,2
1895,51456828,4,12,2
1896,51460232,4,12,3
1897,51463632,4,13,3
1898,51467016,3,13,4
1899,51470436,3,14,4
1900,51473832,3,14,4
1901,51477220,2,14,5
1902,51480624,2,14,5
1903,51484032,2,15,5
1904,51487404,2,15,5
1905,51490796,2,15,5
1906,51494184,2,15,5
1907,51497576,2,14,5
1908,51500964,2,14,5
1909,51504384,2,14,5
1910,51510920,4,13,4
1911,51514336,4,12,4
1912,51517748,5,12,4
1913,51521164,5,11,3
1914,51524580,4,11,3
1915,51527992,4,10,3
1916,51531392,3,9,2
1917,51534780,2,9,2
1918,51538152,1,9,2
1919,51541516,0,8,2
1920,51544896,-0,8,2
1921,51548284,-1,8,1
1922,51551660,-1,8,1
1923,51555048,-2,8,1
1924,51558452,-3,7,1
1925,51561852,-3,7,1
1926,51565260,-4,7,1
1927,51568676,-4,7,1
1928,51572068,-3,7,1
1929,51575468,-2,7,1
1930,51578852,-1,7,1
1931,51582240,-0,7,2
1932,51585640,1,6,2
1933,51589008,2,6,3
1934,51595532,4,6,4
1935,51598916,4,5,5
1936,51602316,5,5,5
1937,51605712,5,5,5
1938,51609104,5,5,6
1939,51612508,6,5,6
1940,51615908,6,5,6
1941,51619304,5,5,7
1942,51622692,5,5,6
1943,51626084,4,6,7
1944,51629468,4,6,6
1945,51632852,4,6,7
1946,51636244,4,6,7
1947,51639636,4,6,8
1948,51643024,3,6,8
1949,51646420,3,6,9
1950,51649816,2,6,9
1951,51653212,2,6,10
1952,51656620,1,6,10
1953,51660036,2,6,10
1954,51663436,2,6,10
1955,51666848,1,6,11
1956,51670252,1,5,11
1957,51673656,1,5,11
1958,51677072,0,5,11
1959,51680488,-0,5,11
1960,51687024,-2,5,10
1961,51690468,-2,5,10
1962,51693908,-3,5,10
1963,51697336,-3,5,10
1964,51700788,-3,4,10
1965,51704224,-4,3,10
1966,51707652,-5,4,9
1967,51711076,-5,4,9
1968,51714496,-5,4,9
1969,51717908,-5,4,9
1970,51721332,-5,4,9
1971,51724736,-4,4,9
1972,51728144,-4,4,9
1973,51731564,-3,4,9
1974,51734956,-1,3,9
1975,51738368,-0,3,10
1976,51741788,1,3,10
1977,51745176,1,3,10
1978,51748556,2,2,11
1979,51751956,3,1,12
1980,51755344,4,-0,13
1981,51758756,5,-1,13
1982,51762188,6,-2,13
1983,51768724,6,-5,14
1984,51772152,5,-6,15
1985,51775592,4,-7,15
1986,51779020,3,-8,16
1987,51782436,1,-9,16
1988,51785884,-0,-9,16
1989,51789344,-1,-10,16
1990,51792836,-3,-10,16
1991,51796320,-5,-11,16
1992,51799796,-6,-11,16
1993,51803280,-7,-11,17
1994,51806744,-8,-12,17
1995,51810232,-8,-12,17
1996,51813720,-9,-13,17
1997,51817208,-9,-13,17
1998,51820688,-9,-14,17
1999,51824156,-10,-14,17
2000,51827664,-10,-15,17
2001,51831180,-10,-15,17
2002,51834684,-9,-15,16
2003,51838164,-8,-15,16
2004,51841632,-7,-15,16
2005,51848252,-6,-14,14
2006,51851716,-6,-12,14
2007,51855188,-5,-11,13
2008,51858656,-5,-9,13
2009,51862104,-4,-6,12
2010,51865552,-4,-5,11
2011,51868996,-4,-3,11
2012,51872432,-3,-1,11
2013,51875860,-3,0,11
2014,51879268,-2,2,10
2015,51882668,-2,3,11
2016,51886096,-1,3,11
2017,51889524,-1,4,12
2018,51892948,0,5,12
2019,51896360,1,5,12
2020,51899760,2,5,13
2021,51903160,3,5,14
2022,51906580,5,5,15
2023,51909992,7,4,16
2024,51913404,9,3,17
2025,51916828,10,3,18
2026,51920276,11,2,19
2027,51923708,12,1,20
2028,51930288,12,-1,22
2029,51933744,11,-2,23
2030,51937200,11,-4,24
2031,51940652,10,-4,25
2032,51944100,10,-5,26
2033,51947548,9,-6,27
2034,51950972,8,-6,28
2035,51954416,7,-7,29
2036,51957852,6,-7,30
2037,51961276,5,-7,31
2038,51964696,4,-8,32
2039,51968140,3,-8,32
2040,51971564,3,-8,33
2041,51974992,2,-8,33
2042,51978420,1,-8,33
2043,51981844,1,-9,34
2044,51985268,0,-9,33
2045,51988716,-0,-10,33
2046,51992176,-1,-11,33
2047,51995632,-1,-12,32
2048,51999084,-2,-12,32
2049,52002556,-2,-13,31
2050,52006032,-3,-13,30
2051,52012500,-5,-13,28
2052,52015984,-6,-12,27
2053,52019448,-7,-11,26
2054,52022928,-8,-10,25
2055,52026388,-8,-9,24
2056,52029840,-9,-8,24
2057,52033288,-9,-7,23
2058,52036744,-9,-6,23
2059,52040196,-10,-4,22
2060,52043672,-9,-3,22
2061,52047116,-9,-1,22
2062,52050544,-8,0,22
2063,52053956,-8,2,22
2064,52057400,-7,3,22
2065,52060820,-6,5,22
2066,52064264,-6,6,22
2067,52067684,-5,8,22
2068,52071104,-4,9,22
2069,52074548,-3,11,23
2070,52078008,-3,12,23
2071,52081456,-3,13,23
2072,52084912,-2,15,24
2073,52091448,-1,17,25
2074,52094884,0,18,25
2075,52098320,1,19,26
2076,52101736,2,19,27
2077,52105176,3,20,27
2078,52108608,4,21,28
2079,52112060,5,22,28
2080,52115508,7,22,29
2081,52118944,8,23,30
2082,52122372,9,23,30
2083,52125844,10,22,31
2084,52129296,11,22,32
2085,52132748,12,21,32
2086,52136220,14,20,33
2087,52139680,15,19,34
2088,52143156,15,17,34
2089,52146620,15,15,34
2090,52150088,15,14,34
2091,52153560,14,12,34
2092,52157028,13,9,34
2093,52160488,11,7,34
2094,52163948,9,6,34
2095,52167372,7,4,33
2096,52173936,3,1,32
2097,52177356,0,-1,31
2098,52180800,-2,-2,31
2099,52184272,-4,-3,30
2100,52187732,-6,-5,29
2101,52191196,-8,-6,28
2102,52194668,-9,-7,28
2103,52198128,-9,-8,27
2104,52201616,-10,-9,27
2105,52205112,-10,-10,27
2106,52208628,-9,-11,26
2107,52212100,-9,-11,27
2108,52215580,-7,-12,27
2109,52219060,-6,-13,27
2110,52222532,-4,-14,28
2111,52226020,-2,-16,28
2112,52229504,-1,-17,29
2113,52232956,1,-18,30
2114,52236416,2,-20,31
2115,52239864,2,-21,32
2116,52243316,2,-22,33
2117,52246748,2,-24,34
2118,52253328,-0,-25,35
2119,52256796,-2,-25,35
2120,52260260,-3,-25,35
2121,52263716,-4,-25,36
2122,52267184,-5,-26,36
2123,52270644,-7,-25,37
2124,52274116,-8,-25,37
2125,52277584,-8,-25,38
2126,52281052,-7,-24,38
2127,52284524,-6,-24,39
2128,52287988,-5,-24,40
2129,52291472,-4,-23,40
2130,52294928,-2,-23,41
2131,52298388,-0,-23,42
2132,52301852,2,-23,43
2133,52305288,4,-23,44
2134,52308728,6,-23,45
2135,52312184,8,-22,45
2136,52315640,9,-22,46
2137,52319112,10,-22,46
2138,52322576,10,-21,46
2139,52329168,10,-20,45
2140,52332672,9,-19,44
2141,52336124,7,-18,43
2142,52339576,5,-17,43
2143,52343036,3,-16,41
2144,52346464,2,-14,40
2145,52349916,-0,-12,39
2146,52353376,-2,-11,37
2147,52356828,-3,-9,36
2148,52360276,-4,-7,35
2149,52363716,-4,-5,34
2150,52367160,-3,-3,33
2151,52370604,-2,-1,32
2152,52374024,-1,1,32
2153,52377440,1,3,32
2154,52380852,3,4,32
2155,52384260,5,6,31
2156,52387672,8,6,31
2157,52391108,11,6,32
2158,52394528,13,5,32
2159,52397956,14,5,32
2160,52401384,15,3,32
2161,52404816,15,2,32
2162,52411356,13,1,32
2163,52414784,12,1,32
2164,52418212,10,1,31
2165,52421616,8,1,31
2166,52425012,6,0,30
2167,52428420,3,-0,30
2168,52431824,1,-0,30
2169,52435256,-0,-0,30
2170,52438684,-2,0,30
2171,52442108,-2,1,31
2172,52445548,-3,2,31
2173,52448976,-3,3,32
2174,52452424,-2,4,33
2175,52455844,-2,4,34
2176,52459264,-0,5,35
2177,52462712,1,5,36
2178,52466124,3,6,37
2179,52469544,5,6,38
2180,52472976,7,7,39
2181,52476408,9,8,39
2182,52479848,10,9,40
2183,52483296,11,9,40
2184,52486736,12,10,40
2185,52490196,13,11,40
2186,52496796,14,13,39
2187,52500252,14,14,38
2188,52503724,13,15,37
2189,52507180,12,15,36
2190,52510636,10,17,35
2191,52514084,9,17,33
2192,52517516,7,18,31
2193,52520952,6,19,30
2194,52524384,4,19,29
2195,52527816,4,19,28
2196,52531272,3,20,26
2197,52534708,3,19,25
2198,52538148,3,19,25
2199,52541580,4,18,24
2200,52545016,4,18,24
2201,52548444,4,18,23
2202,52551876,4,17,23
2203,52555296,4,17,23
2204,52558720,4,17,24
2205,52562156,4,16,24
2206,52565576,5,17,24
2207,52569004,5,17,25
2208,52572424,5,17,25
2209,52578972,4,19,25
2210,52582392,3,21,25
2211,52585808,2,21,25
2212,52589224,1,22,26
2213,52592652,-0,23,26
2214,52596080,-1,24,26
2215,52599512,-1,25,27
2216,52602948,0,25,27
2217,52606368,1,25,28
2218,52609792,2,25,29
2219,52613248,4,25,30
2220,52616668,5,24,31
2221,52620108,7,22,31
2222,52623544,9,20,32
2223,52626984,11,19,33
2224,52630436,12,17,34
2225,52633900,13,15,35
2226,52637360,14,13,35
2227,52640840,15,11,36
2228,52644284,16,9,36
2229,52647724,16,7,36
2230,52651184,16,6,36
2231,52654620,16,4,36
2232,52661076,15,0,36
2233,52664524,14,-1,36
2234,52667972,12,-3,36
2235,52671416,11,-3,35
2236,52674860,9,-5,35
2237,52678312,8,-6,34
2238,52681756,6,-7,34
2239,52685184,4,-8,34
2240,52688620,2,-9,33
2241,52692064,0,-10,33
2242,52695524,-2,-11,32
2243,52699020,-3,-12,32
2244,52702504,-5,-12,31
2245,52705976,-7,-13,31
2246,52709484,-10,-14,30
2247,52712988,-12,-15,29
2248,52716508,-14,-16,29
2249,52720024,-16,-18,29
2250,52723536,-18,-18,29
2251,52727056,-20,-19,28
2252,52730556,-21,-20,28
2253,52737096,-23,-22,28
2254,52740616,-23,-22,28
2255,52744144,-23,-23,28
2256,52747664,-22,-23,28
2257,52751180,-22,-23,28
2258,52754688,-21,-23,28
2259,52758204,-19,-22,28
2260,52761736,-18,-21,29
2261,52765244,-16,-21,29
2262,52768748,-14,-20,29
2263,52772268,-12,-19,29
2264,52775776,-9,-18,29
2265,52779264,-7,-17,29
2266,52782736,-6,-16,29
2267,52786236,-4,-15,28
2268,52789700,-3,-14,28
2269,52793176,-1,-13,28
2270,52796656,-1,-12,27
2271,52800124,-0,-11,27
2272,52803580,0,-10,26
2273,52807040,1,-9,25
2274,52818536,0,-7,21
2275,52821964,1,-6,21
2276,52825400,1,-6,20
2277,52828832,1,-5,18
2278,52832260,1,-5,17
2279,52835692,1,-4,16
2280,52839124,2,-5,15
2281,52842552,2,-4,14
2282,52845976,2,-4,14
2283,52849396,3,-4,13
2284,52852848,4,-4,12
2285,52856272,4,-4,11
2286,52859688,5,-4,11
2287,52863124,5,-5,10
2288,52866544,5,-5,10
2289,52869968,5,-6,9
2290,52873392,6,-6,9
2291,52876788,5,-7,9
2292,52880200,5,-8,10
2293,52883632,5,-9,10
2294,52887048,5,-9,10
2295,52890484,4,-10,11
2296,52893924,4,-11,11
2297,52897356,3,-11,11
2298,52903860,3,-11,12
2299,52907308,3,-12,13
2300,52910752,3,-11,14
2301,52914192,2,-11,15
2302,52917636,2,-11,16
2303,52921072,3,-11,17
2304,52924524,3,-11,18
2305,52927964,4,-11,19
2306,52931412,5,-11,20
2307,52934860,6,-11,22
2308,52938292,7,-11,23
2309,52941736,8,-11,24
2310,52945184,8,-11,25
2311,52948628,9,-10,26
2312,52952080,9,-11,26
2313,52955520,9,-10,27
2314,52958964,9,-10,26
2315,52962420,10,-9,27
2316,52965880,10,-8,28
2317,52969344,9,-8,28
2318,52972796,8,-7,27
2319,52976244,7,-7,27
2320,52982752,4,-5,26
2321,52986208,3,-3,25
2322,52989632,3,-2,25
2323,52993064,3,0,24
2324,52996476,2,1,23
2325,52999864,2,1,23
2326,53003272,2,4,23
2327,53006672,2,6,22
2328,53010072,2,5,22
2329,53013492,3,7,22
2330,53016916,4,9,22
2331,53020336,4,11,21
2332,53023776,4,12,20
2333,53027216,4,12,20
2334,53030652,3,13,19
2335,53034084,2,14,18
2336,53037508,1,15,18
2337,53040944,-0,14,17
2338,53044384,-1,15,16
2339,53047812,-2,16,15
2340,53051288,-3,16,14
2341,53054744,-4,15,14
2342,53058188,-5,15,13
2343,53064696,-6,16,13
2344,53068160,-6,16,13
2345,53071604,-5,16,13
2346,53075068,-4,16,13
2347,53078516,-4,16,13
2348,53081972,-3,16,13
2349,53085428,-3,16,13
2350,53088872,-2,15,14
2351,53092316,-1,15,14
2352,53095760,0,14,14
2353,53099168,1,13,15
2354,53102600,2,13,15
2355,53106032,2,12,15
2356,53109452,2,11,16
2357,53112888,1,9,16
2358,53116300,-1,8,16
2359,53119736,-2,7,16
2360,53123204,-4,6,16
2361,53126652,-6,4,16
2362,53130104,-9,2,16
2363,53133548,-11,1,15
2364,53137020,-14,-0,15
2365,53140512,-16,-2,15
2366,53147148,-18,-3,15
2367,53150636,-19,-4,15
2368,53154136,-20,-5,16
2369,53157604,-21,-5,16
2370,53161088,-22,-6,16
2371,53164568,-21,-6,16
2372,53168052,-21,-7,17
2373,53171528,-21,-7,17
2374,53175004,-20,-7,18
2375,53178484,-19,-8,18
2376,53181960,-18,-8,19
2377,53185448,-16,-9,20
2378,53188916,-14,-9,20
2379,53192376,-12,-9,21
2380,53195884,-11,-10,22
2381,53199388,-9,-10,23
2382,53202892,-7,-11,24
2383,53206380,-6,-12,24
2384,53209856,-6,-12,25
2385,53213356,-5,-13,26
2386,53216848,-5,-14,26
2387,53223416,-4,-16,27
2388,53226916,-5,-17,27
2389,53230404,-5,-18,28
2390,53233912,-6,-19,28
2391,53237416,-6,-19,28
2392,53240944,-7,-19,28
2393,53244432,-8,-19,27
2394,53247940,-9,-20,28
2395,53251432,-10,-20,28
2396,53254956,-12,-20,28
2397,53258492,-14,-20,28
2398,53262020,-16,-20,28
2399,53265564,-17,-20,28
2400,53269096,-19,-19,28
2401,53272640,-21,-19,28
2402,53276172,-22,-19,27
2403,53279692,-23,-18,27
2404,53283224,-24,-18,26
2405,53286752,-25,-17,26
2406,53290284,-24,-17,25
2407,53293808,-24,-16,24
2408,53300248,-22,-15,22
2409,53303756,-21,-15,22
2410,53307260,-20,-16,21
2411,53310772,-19,-16,21
2412,53314284,-17,-17,20
2413,53317812,-16,-18,19
2414,53321324,-15,-19,19
2415,53324848,-13,-20,18
2416,53328352,-12,-21,17
2417,53331856,-11,-22,16
2418,53335368,-10,-23,15
2419,53338884,-10,-24,14
2420,53342408,-10,-24,13
2421,53345912,-9,-25,12
2422,53349408,-9,-25,12
2423,53352884,-8,-25,11
2424,53356372,-8,-25,10
2425,53359844,-7,-25,9
2426,53363312,-7,-25,9
2427,53366776,-6,-24,9
2428,53370236,-6,-24,9
2429,53376636,-5,-24,9
2430,53380080,-4,-23,9
2431,53383536,-3,-23,10
2432,53386980,-2,-23,10
2433,53390440,-0,-23,11
2434,53393888,1,-23,12
2435,53397316,2,-22,12
2436,53400756,3,-22,12
2437,53404196,3,-22,13
2438,53407628,3,-21,13
2439,53411068,4,-21,14
2440,53414520,3,-20,15
2441,53417956,3,-19,15
2442,53421400,2,-18,15
2443,53424836,2,-17,15
2444,53428300,-0,-15,15
2445,53431748,-1,-13,15
2446,53435216,-2,-11,15
2447,53438680,-4,-9,15
2448,53442120,-4,-7,16
2449,53445564,-5,-5,16
2450,53449008,-4,-3,16
2451,53455508,-2,-1,17
2452,53458956,-1,0,18
2453,53462360,1,1,18
2454,53465748,3,2,19
2455,53469140,6,2,20
2456,53472560,7,2,21
2457,53475964,9,2,22
2458,53479372,11,2,23
2459,53482796,13,2,24
2460,53486216,14,2,25
2461,53489632,15,2,26
2462,53493064,16,2,28
2463,53496484,16,2,29
2464,53499944,16,3,30
2465,53503372,16,3,31
2466,53506812,15,4,32
2467,53510272,13,4,32
2468,53513728,12,5,33
2469,53517184,10,5,34
2470,53520644,8,6,34
2471,53524072,5,6,34
2472,53527512,4,6,34
2473,53530928,2,7,34
2474,53534364,-0,7,34
2475,53540880,-3,7,34
2476,53544312,-5,7,33
2477,53547760,-6,7,33
2478,53551204,-6,8,33
2479,53554640,-6,8,32
2480,53558080,-6,8,32
2481,53561544,-5,8,31
2482,53564980,-5,8,31
2483,53568416,-4,8,30
2484,53571864,-3,9,29
2485,53575292,-1,9,29
2486,53578724,0,9,29
2487,53582132,2,9,28
2488,53585540,3,9,29
2489,53588948,5,9,28
2490,53592360,7,9,28
2491,53595776,9,9,28
2492,53599208,11,10,29
2493,53602672,12,10,29
2494,53606124,13,11,29
2495,53609572,13,11,29
2496,53613024,13,12,30
2497,53616464,12,12,30
2498,53622964,12,13,32
2499,53626400,11,14,32
2500,53629852,10,15,33
2501,53633300,9,16,34
2502,53636744,9,17,35
2503,53640200,8,17,36
2504,53643644,8,18,37
2505,53647088,8,19,38
2506,53650540,8,19,39
2507,53653988,8,20,40
2508,53657444,8,20,41
2509,53660900,8,20,41
2510,53664348,8,21,42
2511,53667784,8,21,42
2512,53671216,8,21,43
2513,53674640,9,21,43
2514,53678100,10,21,43
2515,53681548,11,20,43
2516,53684996,11,20,43
2517,53688456,12,19,42
2518,53691892,13,19,42
2519,53695352,13,18,41
2520,53698820,14,18,40
2521,53705404,13,16,38
2522,53708868,12,16,37
2523,53712336,10,15,36
2524,53715784,9,15,35
2525,53719224,7,14,33
2526,53722652,6,14,32
2527,53726088,4,14,31
2528,53729528,2,13,30
2529,53732964,1,13,29
2530,53736392,-1,13,28
2531,53739840,-2,12,27
2532,53743292,-4,12,27
2533,53746756,-5,11,26
2534,53750196,-5,10,26
2535,53753648,-6,9,26
2536,53757108,-6,8,26
2537,53760540,-5,7,27
2538,53763992,-4,6,27
2539,53767428,-3,6,27
2540,53770852,-1,5,28
2541,53774284,1,3,29
2542,53777688,3,2,30
2543,53781088,4,1,31
2544,53787584,7,-1,33
2545,53791016,8,-2,34
2546,53794436,9,-3,35
2547,53797852,9,-3,36
2548,53801288,9,-4,36
2549,53804708,8,-4,37
2550,53808140,7,-5,37
2551,53811564,5,-5,38
2552,53814996,4,-5,38
2553,53818432,3,-5,38
2554,53821852,1,-5,38
2555,53825272,-0,-5,38
2556,53828700,-2,-4,37
2557,53832140,-3,-4,37
2558,53835584,-4,-4,37
2559,53839040,-5,-4,37
2560,53842476,-5,-4,37
2561,53845920,-6,-5,37
2562,53849372,-5,-5,37
2563,53852808,-5,-5,37
2564,53856264,-4,-6,37
2565,53859708,-4,-7,37
2566,53863156,-3,-8,38
2567,53869692,-3,-9,38
2568,53873152,-3,-10,38
2569,53876640,-4,-10,38
2570,53880132,-4,-11,38
2571,53883616,-6,-11,38
2572,53887116,-8,-11,38
2573,53890620,-10,-11,38
2574,53894152,-12,-11,38
2575,53897684,-14,-11,38
2576,53901236,-16,-11,39
2577,53904788,-18,-10,39
2578,53908304,-20,-10,38
2579,53911824,-22,-9,38
2580,53915300,-22,-8,38
2581,53918808,-23,-8,38
2582,53922280,-23,-9,38
2583,53925772,-23,-9,37
2584,53929256,-22,-10,37
2585,53932756,-21,-11,36
2586,53936272,-19,-12,36
2587,53939776,-17,-13,36
2588,53946220,-16,-16,37
2589,53949744,-15,-17,37
2590,53953272,-15,-18,38
2591,53956808,-15,-19,39
2592,53960332,-15,-20,40
2593,53963860,-15,-21,41
2594,53967380,-17,-22,41
2595,53970908,-18,-22,42
2596,53974436,-19,-23,43
2597,53977956,-20,-23,44
2598,53981480,-21,-23,45
2599,53984996,-22,-22,46
2600,53988524,-23,-21,48
2601,53992036,-24,-20,49
2602,53995564,-25,-19,51
2603,53999084,-26,-18,51
2604,54002588,-27,-16,51
2605,54006104,-28,-14,53
2606,54009608,-28,-12,53
2607,54013132,-29,-10,54
2608,54019560,-29,-5,54
2609,54023040,-29,-2,53
2610,54026492,-28,1,52
2611,54029956,-26,3,52
2612,54033420,-25,6,51
2613,54036864,-23,9,50
2614,54040320,-21,11,49
2615,54043812,-18,14,47
2616,54047288,-15,16,46
2617,54050780,-12,19,45
2618,54054256,-8,21,43
2619,54057712,-5,22,42
2620,54061164,-1,24,40
2621,54064600,3,24,39
2622,54068024,7,24,38
2623,54071480,11,24,37
2624,54074916,15,23,37
2625,54078380,19,22,36
2626,54081836,22,21,36
2627,54085292,25,19,36
2628,54088764,28,17,36
2629,54092240,29,15,36
2630,54098860,31,10,37
2631,54102328,32,9,37
2632,54105784,32,7,37
2633,54109236,30,5,38
2634,54112672,28,3,38
2635,54116088,25,1,39
2636,54119500,21,0,39
2637,54122916,16,-0,40
2638,54126368,12,-1,40
2639,54129796,7,-1,40
2640,54133188,2,-2,41
2641,54136608,-3,-2,41
2642,54140068,-7,-3,42
2643,54143528,-11,-4,43
2644,54147028,-14,-5,44
2645,54150508,-15,-6,45
2646,54153980,-16,-6,47
2647,54157480,-16,-7,48
2648,54160968,-16,-8,50
2649,54164464,-15,-8,51
2650,54167944,-13,-8,52
2651,54171420,-12,-8,53
2652,54178068,-8,-7,55
2653,54181528,-6,-7,55
2654,54184996,-4,-6,55
2655,54188456,-2,-5,55
2656,54191896,-1,-4,55
2657,54195360,0,-3,54
2658,54198776,1,-2,53
2659,54202184,1,-1,52
2660,54205624,1,-0,51
2661,54209040,1,1,49
2662,54212460,1,2,48
2663,54215880,1,2,46
2664,54219292,1,3,44
2665,54222696,0,3,42
2666,54226112,-1,3,40
2667,54229540,-2,3,38
2668,54232984,-3,3,36
2669,54236428,-4,3,34
2670,54239880,-4,2,33
2671,54243312,-5,2,31
2672,54246760,-6,2,29
2673,54250200,-7,2,28
2674,54253640,-8,1,27
2675,54257080,-9,1,26
2676,54263564,-10,0,25
2677,54267028,-11,0,25
2678,54270472,-11,0,25
2679,54273932,-11,0,25
2680,54277384,-11,0,26
2681,54280828,-10,0,27
2682,54284272,-9,0,28
2683,54287696,-9,1,29
2684,54291120,-8,1,30
2685,54294556,-6,1,31
2686,54297992,-5,1,32
2687,54301416,-3,2,33
2688,54304844,-1,1,34
2689,54308240,1,1,35
2690,54311636,3,1,36
2691,54315052,6,-0,37
2692,54318460,8,-1,38
2693,54321888,9,-2,38
2694,54325332,11,-4,39
2695,54328776,13,-5,39
2696,54332212,14,-6,39
2697,54335676,15,-7,39
2698,54339128,15,-8,39
2699,54345724,14,-9,38
2700,54349196,13,-10,37
2701,54352676,11,-10,36
2702,54356168,9,-10,35
2703,54359640,7,-10,34
2704,54363100,5,-10,33
2705,54366564,3,-10,32
2706,54370020,1,-10,31
2707,54373488,-0,-10,30
2708,54376968,-2,-9,29
2709,54380440,-3,-9,28
2710,54383908,-4,-9,27
2711,54387364,-4,-9,26
2712,54390832,-3,-8,25
2713,54394284,-3,-8,25
2714,54397716,-2,-8,24
2715,54401192,-1,-7,23
2716,54404640,1,-8,23
2717,54408068,2,-7,23
2718,54411520,3,-7,23
2719,54414968,5,-7,23
2720,54418396,5,-7,23
2721,54424900,5,-8,23
2722,54428332,4,-8,23
2723,54431768,3,-8,23
2724,54435180,2,-8,23
2725,54438608,-0,-8,23
2726,54442064,-2,-7,23
2727,54445520,-4,-7,23
2728,54448976,-6,-7,23
2729,54452452,-7,-8,23
2730,54455908,-9,-8,23
2731,54459368,-10,-8,24
2732,54462832,-11,-8,24
2733,54466292,-11,-8,24
2734,54469768,-12,-9,24
2735,54473232,-12,-9,24
2736,54476712,-12,-10,24
2737,54480224,-11,-10,23
2738,54483716,-10,-10,23
2739,54487236,-9,-11,23
2740,54490696,-8,-11,22
2741,54494172,-6,-11,22
2742,54497632,-6,-11,21
2743,54504168,-6,-10,20
2744,54507648,-6,-10,20
2745,54511100,-5,-9,19
