loopIteration,time,gyroADC[0],gyroADC[1],gyroADC[2]
0,19771936,5,-5,-0
1,19853684,4,-1,-0
2,19857040,5,-2,-0
3,19860380,3,-3,0
4,19863680,1,-1,0
5,19867012,0,1,0
6,19870324,1,0,-0
7,19873652,0,-0,0
8,19877000,0,0,0
9,19880320,1,0,-0
10,19883640,0,0,0
11,19886984,-1,-0,0
12,19890372,-1,-0,-0
13,19893764,-0,-0,-0
14,19897156,0,-0,0
15,19900520,0,-0,-0
16,19903884,-0,-1,0
17,19907244,-2,-0,1
18,19910608,-3,0,0
19,19913964,-2,1,0
20,19917328,-1,0,0
21,19920692,0,-0,0
22,19924040,-1,0,0
23,19927388,-3,1,0
24,19930744,-4,1,0
25,19937996,-2,1,-0
26,19941368,-2,1,0
27,19944748,-3,1,0
28,19948112,-3,1,0
29,19951480,-3,0,0
30,19954820,-2,0,0
31,19958172,-1,0,1
32,19961528,-0,0,0
33,19964888,-0,0,0
34,19968240,-0,0,0
35,19971588,0,0,0
36,19974908,1,0,0
37,19978264,2,0,0
38,19981608,3,0,0
39,19984956,3,0,0
40,19988300,3,1,0
41,19991656,3,1,0
42,19994992,3,0,0
43,19998340,3,0,0
44,20001676,3,0,0
45,20005024,3,0,0
46,20008384,3,0,0
47,20011716,2,-0,0
48,20015080,3,-0,0
49,20018440,2,-0,0
50,20021800,2,-0,0
51,20025156,2,-0,0
52,20032916,1,-0,0
53,20036252,1,0,0
54,20039600,1,-0,-0
55,20042956,1,0,0
56,20046284,0,0,0
57,20049616,-0,0,0
58,20052972,-0,0,0
59,20056320,-0,0,0
60,20059660,-0,0,0
61,20063000,-0,0,0
62,20066356,-0,0,0
63,20069704,-0,0,0
64,20073072,-0,-0,0
65,20076448,0,-0,0
66,20079816,0,-0,0
67,20083184,1,-0,1
68,20086544,1,-0,1
69,20089904,1,-0,0
70,20093248,2,-0,0
71,20096604,2,-0,1
72,20099976,2,-0,0
73,20103360,2,-0,0
74,20106720,2,-0,0
75,20110080,2,-0,0
76,20113456,3,0,0
77,20116800,3,-0,0
78,20120156,2,0,0
79,20126688,2,0,0
80,20130028,1,0,0
81,20133368,1,0,0
82,20136688,0,0,0
83,20140024,-0,0,0
84,20143380,-0,-0,0
85,20146756,-1,-0,0
86,20150120,-1,-0,0
87,20153496,-1,-0,1
88,20156864,-2,-0,1
89,20160224,-2,-0,0
90,20163612,-2,-0,0
91,20166984,-2,-0,0
92,20170348,-2,-0,0
93,20173716,-2,-0,0
94,20177092,-1,-0,1
95,20180468,-1,0,0
96,20183812,-1,0,0
97,20187172,-1,0,-0
98,20190532,-1,0,0
99,20193896,-1,1,-0
100,20197268,-1,1,-0
101,20200660,-0,1,-0
102,20204060,-0,1,-0
103,20207468,-0,0,-0
104,20210852,0,1,-0
105,20217440,0,0,0
106,20220808,0,0,-0
107,20224204,1,0,-0
108,20227580,1,-0,0
109,20230956,1,-0,0
110,20234340,1,-0,0
111,20237724,1,-1,0
112,20241116,1,-1,-0
113,20244520,1,-1,0
114,20247892,1,-0,0
115,20251264,1,-0,0
116,20254652,1,-0,-0
117,20258052,1,0,-0
118,20261424,1,0,-0
119,20264796,0,1,-0
120,20268180,0,1,-0
121,20271564,-0,1,-0
122,20274944,-1,1,-1
123,20278340,-1,1,-1
124,20281724,-1,1,-1
125,20285100,-1,1,-1
126,20288480,-2,1,-1
127,20291880,-2,1,-1
128,20295268,-2,1,-1
129,20298656,-2,1,-1
130,20302048,-1,1,-0
131,20313564,-1,0,-0
132,20316936,-1,0,-0
133,20320352,-1,-0,-0
134,20323760,-1,-0,-0
135,20327168,-0,-0,-0
136,20330596,0,-0,-0
137,20333980,0,-0,-0
138,20337376,1,-0,-0
139,20340780,1,-0,-0
140,20344188,1,-0,-0
141,20347580,1,0,-1
142,20350956,1,0,-1
143,20354344,1,1,-1
144,20357728,0,1,-1
145,20361100,0,1,-1
146,20364468,0,1,-1
147,20367832,-0,1,-1
148,20371212,-0,1,-1
149,20374608,-1,1,-1
150,20377988,-1,1,-1
151,20381364,-1,1,-0
152,20384752,-2,0,-0
153,20388128,-2,0,-0
154,20391512,-2,0,-0
155,20399228,-2,-1,-0
156,20402628,-1,-1,0
157,20406020,-1,-1,0
158,20409420,-1,-1,0
159,20412812,-1,-1,0
160,20416204,-1,-0,0
161,20419604,-1,-0,-0
162,20423008,-1,0,0
163,20426388,-0,0,0
164,20429768,-0,0,0
165,20433148,-0,0,-0
166,20436548,-1,1,-0
167,20439932,-0,1,-0
168,20443324,-0,0,-0
169,20446716,-1,0,-0
170,20450096,-1,0,0
171,20453492,-1,0,-0
172,20456888,-1,-0,0
173,20460296,-1,-0,-0
174,20463712,-1,-0,0
175,20467108,-1,-1,-0
176,20470524,-1,-1,0
177,20473944,-1,-0,-0
178,20477368,-1,-0,-0
179,20484156,-1,0,-0
180,20487552,-1,0,-1
181,20490936,-0,1,-1
182,20494344,-0,1,-1
183,20497736,-0,1,-1
184,20501144,-0,1,-1
185,20504556,0,1,-1
186,20507944,0,1,-1
187,20511336,0,1,-1
188,20514700,1,1,-1
189,20518080,1,1,-1
190,20521448,1,0,-0
191,20524820,1,0,-0
192,20528204,1,0,0
193,20531560,1,-0,0
194,20534924,1,-0,0
195,20538304,1,-1,0
196,20541680,1,-1,0
197,20545052,1,-1,0
198,20548408,1,-1,0
199,20551796,1,-1,0
200,20555160,1,-1,0
201,20558528,1,-1,0
202,20561912,1,-0,0
203,20565280,1,-0,0
204,20568660,1,-0,0
205,20575252,1,-0,0
206,20578624,0,-0,0
207,20581984,0,0,0
208,20585344,0,0,0
209,20588736,0,-0,0
210,20592108,0,0,0
211,20595472,0,0,0
212,20598844,0,-0,-0
213,20602224,0,-0,0
214,20605596,0,-0,-0
215,20608988,0,-0,-0
216,20612380,0,-0,0
217,20615764,0,-0,-0
218,20619172,1,-0,0
219,20622556,0,-0,-0
220,20625952,1,0,-0
221,20629344,1,0,-0
222,20632736,1,-0,-0
223,20636120,1,0,-1
224,20639492,1,0,-0
225,20642880,1,0,-1
226,20646248,1,0,-1
227,20649612,1,0,-1
228,20652992,1,0,-1
229,20656360,1,0,-1
230,20662944,1,0,-1
231,20666308,1,0,-1
232,20669668,1,0,-1
233,20673028,1,0,-0
234,20676380,1,0,-1
235,20679756,1,0,-1
236,20683136,1,0,-0
237,20686500,1,0,-0
238,20689880,1,-0,-0
239,20693272,0,-0,-0
240,20696660,0,-0,-0
241,20700064,-0,-1,0
242,20703452,-1,-1,0
243,20706844,-1,-1,0
244,20710228,-1,-1,0
245,20713620,-1,-0,0
246,20717012,-1,-0,0
247,20720392,-1,-0,0
248,20723788,-1,-0,0
249,20727192,-1,-0,0
250,20730572,-1,0,0
251,20733960,-0,0,0
252,20737336,-0,0,0
253,20740724,-0,0,0
254,20744092,0,0,0
255,20750636,0,0,0
256,20754000,0,0,0
257,20757364,0,-0,0
258,20760728,0,-0,0
259,20764092,0,-0,0
260,20767468,0,-0,0
261,20770860,0,-0,0
262,20774228,-0,-0,0
263,20777616,-0,-0,0
264,20781008,-0,-0,0
265,20784404,-0,-0,0
266,20787788,-0,-0,0
267,20791200,-0,-0,0
268,20794600,-0,-0,0
269,20797980,-0,0,0
270,20801348,-0,0,0
271,20804728,-0,0,0
272,20808096,-0,0,-0
273,20811488,0,0,-0
274,20814872,-0,0,0
275,20818236,-0,0,0
276,20821604,-0,-0,0
277,20825000,0,-0,0
278,20828380,-0,-0,0
279,20831768,-0,-0,0
280,20838356,0,-0,1
281,20841732,0,-0,1
282,20845104,1,-0,1
283,20848452,1,-0,1
284,20851816,2,-0,1
285,20855172,2,-0,1
286,20858552,2,-0,1
287,20861936,3,-0,1
288,20865320,3,-0,1
289,20868712,3,-0,1
290,20872100,4,-0,1
291,20875492,4,-0,1
292,20878868,4,-0,1
293,20882256,4,-0,1
294,20885640,3,-0,1
295,20889020,3,-0,1
296,20892400,3,-0,0
297,20895780,3,-0,1
298,20899136,2,-0,1
299,20902500,2,-1,1
300,20905852,1,-1,1
301,20909232,1,-0,1
302,20912604,1,-0,1
303,20915972,1,-0,0
304,20919348,0,-0,0
305,20922716,0,-0,1
306,20929300,0,-0,0
307,20932692,-0,0,0
308,20936028,-0,0,0
309,20939396,-0,0,0
310,20942764,-0,-0,0
311,20946160,-0,0,0
312,20949540,-0,-0,0
313,20952932,-0,0,0
314,20956308,-1,-0,0
315,20959688,-0,-0,0
316,20963068,-0,-0,0
317,20966460,-0,-0,0
318,20969840,-0,-0,0
319,20973240,-0,-0,0
320,20976632,-0,-0,0
321,20980036,-0,-0,0
322,20983432,0,-0,0
323,20986808,0,-0,0
324,20990180,0,0,0
325,20993532,0,-0,0
326,20996912,0,0,0
327,21000276,0,0,0
328,21003628,1,-0,0
329,21007008,1,-0,0
330,21010376,0,-0,0
331,21016960,0,-0,0
332,21020340,0,-0,0
333,21023712,0,-0,0
334,21027080,0,-0,0
335,21030456,0,-0,0
336,21033832,-0,-0,0
337,21037228,-0,-0,0
338,21040616,-0,-0,0
339,21043992,-1,0,0
340,21047380,-0,0,0
341,21050756,-1,0,-0
342,21054152,-1,0,-0
343,21057548,-1,0,-0
344,21060936,-1,0,-0
345,21064312,-1,0,0
346,21067696,-1,0,-0
347,21071068,-1,0,0
348,21074456,-1,-0,0
349,21077860,-1,-0,0
350,21081272,-1,-0,0
351,21084676,-1,-0,0
352,21088072,-1,-0,0
353,21091480,-1,-0,0
354,21094864,-0,-0,0
355,21098272,-0,-0,0
356,21104736,0,-0,0
357,21108116,1,-0,0
358,21111488,1,0,0
359,21114856,1,-0,0
360,21118236,1,0,0
361,21121604,1,-0,0
362,21124992,1,-0,0
363,21128376,1,0,0
364,21131740,1,-0,0
365,21135104,1,0,-0
366,21138476,1,-0,0
367,21141860,1,-0,-0
368,21145252,1,-0,-0
369,21148636,1,-0,0
370,21152020,0,0,0
371,21155372,0,-0,0
372,21158760,-0,-0,0
373,21162160,-0,-0,0
374,21165552,-1,-0,0
375,21168928,-1,0,0
376,21172312,-1,0,0
377,21175680,-1,0,0
378,21179052,-2,0,0
379,21182428,-2,0,-0
380,21185844,-2,0,-0
381,21189244,-2,0,0
382,21195712,-2,-0,0
383,21199112,-2,-0,0
384,21202496,-1,-0,0
385,21205888,-1,-0,0
386,21209280,-1,-0,0
387,21212680,-1,-0,0
388,21216084,-1,-0,0
389,21219484,-1,-0,0
390,21222876,-1,-0,0
391,21226276,-0,-0,0
392,21229692,-0,-0,0
393,21233084,-0,0,0
394,21236472,0,-0,0
395,21239856,-0,0,0
396,21243232,0,0,0
397,21246596,0,-0,0
398,21249984,1,0,0
399,21253352,1,0,0
400,21256724,0,-0,0
401,21260116,0,-0,0
402,21263500,1,-0,0
403,21266868,1,0,0
404,21270228,1,-0,0
405,21273620,1,-0,0
406,21277004,1,-0,0
407,21283580,0,-0,0
408,21286984,-0,-0,0
409,21290372,1,0,0
410,21293708,0,-0,0
411,21297092,-0,-0,0
412,21300488,-0,-0,0
413,21303896,-0,-0,0
414,21307296,-0,-0,0
415,21310684,-0,0,0
416,21314056,-0,0,0
417,21317432,-0,-0,0
418,21320824,-1,-0,0
419,21324212,-0,0,0
420,21327580,0,0,0
421,21330948,-0,-0,0
422,21334328,-0,-0,0
423,21337716,0,-0,0
424,21341096,0,-0,0
425,21344488,-0,-0,0
426,21347876,0,-0,0
427,21351248,0,-0,0
428,21354644,0,-0,0
429,21357996,0,0,0
430,21361356,1,0,0
431,21364720,1,-0,0
432,21371316,1,-0,0
433,21374696,1,-0,0
434,21378080,1,-0,0
435,21381448,1,-1,0
436,21384788,1,-0,0
437,21388156,1,-0,0
438,21391540,1,-0,0
439,21394904,1,-0,0
440,21398276,0,-1,0
441,21401660,1,-1,0
442,21405036,1,-0,0
443,21408396,1,1,0
444,21411756,1,0,0
445,21415120,-0,-1,0
446,21418528,0,-0,0
447,21421884,1,0,0
448,21425244,0,-1,0
449,21428600,-1,-1,0
450,21431984,-1,-0,0
451,21435380,-0,-0,0
452,21438772,-0,-0,0
453,21442148,-0,0,0
454,21445512,-1,0,0
455,21448900,-1,-0,0
456,21452288,-1,0,0
457,21455668,-1,0,0
458,21462216,-1,-0,0
459,21465596,-1,-0,0
460,21468992,-1,-0,0
461,21472388,-1,-0,0
462,21475780,-1,-0,0
463,21479164,-1,0,0
464,21482560,-0,0,-0
465,21485944,-1,0,0
466,21489332,-0,0,-0
467,21492716,-0,0,-0
468,21496116,-0,0,0
469,21499504,0,0,-0
470,21502892,0,-0,0
471,21506272,0,-0,0
472,21509660,0,-0,0
473,21513040,0,-0,0
474,21516428,0,-0,0
475,21519808,0,-0,0
476,21523200,1,-0,0
477,21526580,1,0,0
478,21529936,1,0,0
479,21533276,1,0,0
480,21536636,1,0,0
481,21540000,1,0,0
482,21543344,1,0,0
483,21549912,1,-0,0
484,21553296,1,-0,0
485,21556676,1,-0,0
486,21560048,1,-0,0
487,21563436,1,-0,0
488,21566808,1,-0,0
489,21570192,1,-0,0
490,21573568,1,-0,0
491,21576944,1,-0,0
492,21580328,1,-0,0
493,21583708,1,-0,0
494,21587088,0,-0,0
495,21590456,0,-0,0
496,21593836,-0,-0,0
497,21597224,0,-0,0
498,21600596,-0,0,0
499,21603980,-1,0,-0
500,21607356,-0,0,0
501,21610744,-1,0,-0
502,21614116,-0,0,0
503,21617492,-1,0,0
504,21620872,-1,0,0
505,21624244,-1,0,0
506,21627632,-1,0,-0
507,21631028,-1,-0,0
508,21637644,-1,-0,0
509,21641044,-1,-0,0
510,21644460,-0,-0,-0
511,21647880,-0,0,0
512,21651256,-0,0,-0
513,21654652,-0,0,0
514,21658028,-0,0,-0
515,21661412,-0,0,0
516,21664800,-0,0,-0
517,21668176,-0,0,-0
518,21671552,-0,0,0
519,21674920,-0,0,0
520,21678300,-0,0,0
521,21681676,-1,0,-0
522,21685056,-1,0,0
523,21688440,-0,0,-0
524,21691816,-0,0,0
525,21695192,-0,0,-0
526,21698600,-0,0,0
527,21701988,-0,0,-0
528,21705404,-0,0,-0
529,21708832,-0,-0,-0
530,21712236,0,-0,-0
531,21715632,0,-0,-0
532,21719020,0,-0,-0
533,21725636,0,0,-0
534,21729004,0,0,-0
535,21732388,0,1,-0
536,21735752,0,0,-0
537,21739132,-0,0,-0
538,21742516,0,0,-0
539,21745908,-0,0,-0
540,21749292,-0,0,-0
541,21752700,-0,0,0
542,21756080,0,-0,0
543,21759448,0,-0,0
544,21762816,0,-0,0
545,21766200,0,-1,0
546,21769568,0,-0,0
547,21772944,1,-1,0
548,21776320,1,-1,0
549,21779696,1,-1,1
550,21783064,1,-0,0
551,21786432,1,-0,0
552,21789824,1,-0,0
553,21793196,1,-0,0
554,21796564,1,-0,0
555,21799948,1,0,0
556,21803292,1,0,0
557,21806660,1,0,0
558,21810020,1,0,0
559,21816456,0,0,0
560,21819816,-0,-0,0
561,21823192,-0,-0,0
562,21826588,-1,-0,0
563,21829972,-1,-0,0
564,21833368,-0,-1,0
565,21836756,-1,-1,0
566,21840116,-0,-0,0
567,21843504,-1,-0,0
568,21846912,-0,-0,0
569,21850320,-0,-0,0
570,21853700,0,0,0
571,21857052,0,0,0
572,21860416,0,0,0
573,21863760,1,0,0
574,21867112,1,0,0
575,21870480,1,-0,0
576,21873864,1,0,0
577,21877228,1,-0,0
578,21880592,1,-1,0
579,21883968,0,-0,0
580,21887336,1,-0,0
581,21890708,1,-1,0
582,21894080,1,-1,0
583,21897452,0,-0,0
584,21903928,0,-0,0
585,21907316,0,-0,0
586,21910700,0,-0,0
587,21914080,0,0,0
588,21917448,0,-0,0
589,21920816,0,0,0
590,21924152,0,0,0
591,21927496,0,0,0
592,21930840,0,0,0
593,21934208,0,-0,0
594,21937584,-0,-0,0
595,21940960,-1,-0,0
596,21944356,-0,-0,0
597,21947736,-0,-0,0
598,21951124,-1,-1,1
599,21954516,-1,-1,1
600,21957900,-1,-1,1
601,21961284,-1,-1,1
602,21964688,-1,-1,1
603,21968068,-1,-1,0
604,21971452,-0,-1,1
605,21974852,0,-0,0
606,21978236,-0,-0,0
607,21981624,-0,-0,0
608,21985020,-0,0,0
609,21991600,1,0,0
610,21994948,0,0,0
611,21998304,0,0,0
612,22001656,0,0,0
613,22005036,0,-0,0
614,22008412,1,0,0
615,22011788,1,-0,0
616,22015176,0,-0,0
617,22018548,1,-0,0
618,22021916,0,-0,0
619,22025304,1,-0,0
620,22028672,1,-0,0
621,22032044,1,-0,1
622,22035408,1,-0,0
623,22038784,1,-0,0
624,22042164,1,-0,0
625,22045544,1,-0,0
626,22048920,1,0,0
627,22052284,1,0,0
628,22055636,1,-0,0
629,22059000,1,0,0
630,22062352,1,0,0
631,22065700,1,0,0
632,22069064,0,0,0
633,22072428,0,0,0
634,22075792,-0,0,0
635,22079164,-1,0,0
636,22085768,-1,-0,0
637,22089148,-1,-0,0
638,22092524,-2,-0,0
639,22095908,-2,-0,0
640,22099308,-2,-0,0
641,22102696,-2,-0,1
642,22106088,-2,-0,1
643,22109492,-2,-1,1
644,22112908,-2,-0,1
645,22116304,-2,-1,1
646,22119700,-1,-1,1
647,22123100,-1,-0,1
648,22126496,-0,-0,1
649,22129896,-0,-0,1
650,22133260,0,-0,1
651,22136652,1,-0,1
652,22140040,1,0,0
653,22143388,2,0,0
654,22146756,2,0,0
655,22150128,2,1,0
656,22153488,3,0,0
657,22156844,3,0,0
658,22160200,3,0,0
659,22163584,2,0,0
660,22166940,2,-0,0
661,22173504,2,-1,0
662,22176880,1,-0,0
663,22180252,1,-0,0
664,22183620,1,-0,0
665,22186984,0,-1,0
666,22190364,0,-0,0
667,22193728,0,-0,0
668,22197112,-0,0,0
669,22200492,-0,0,0
670,22203872,-1,0,-0
671,22207244,-1,0,0
672,22210608,-1,0,0
673,22213964,-1,0,0
674,22217336,-1,0,0
675,22220704,-1,0,0
676,22224104,-2,0,-0
677,22227484,-2,0,0
678,22230852,-2,-0,0
679,22234252,-1,-0,1
680,22237632,-1,-1,0
681,22241004,-2,-1,0
682,22244420,-2,-0,0
683,22247824,-2,-1,0
684,22251220,-2,-0,0
685,22254620,-1,-1,0
686,22261204,-1,-0,1
687,22264592,-1,0,1
688,22267984,-1,0,1
689,22271368,-1,-0,0
690,22274752,-0,-0,0
691,22278140,0,-0,0
692,22281512,0,-0,0
693,22284892,-0,-1,0
694,22288300,-0,-0,-0
695,22291716,1,-0,-0
696,22295116,1,-0,-0
697,22298520,1,-0,-0
698,22301900,0,0,0
699,22305256,0,0,-0
700,22308620,0,0,-0
701,22311996,0,0,-0
702,22315372,-0,1,-0
703,22318760,-1,1,-0
704,22322140,-1,1,-0
705,22325528,-2,1,-0
706,22328920,-2,0,-0
707,22332316,-2,0,-0
708,22335708,-2,0,0
709,22339096,-2,-0,0
710,22342488,-2,-0,0
711,22349120,-2,-0,0
712,22352520,-2,-0,0
713,22355924,-1,-0,-0
714,22359348,-1,-0,-0
715,22362760,-1,0,-0
716,22366156,-1,0,-0
717,22369560,-0,1,-0
718,22372948,-0,1,-0
719,22376348,-0,1,-1
720,22379756,-1,1,-1
721,22383144,-0,1,-1
722,22386516,-0,1,-1
723,22389912,-0,0,-0
724,22393308,-1,1,-0
725,22396688,-1,0,-0
726,22400088,-1,0,-0
727,22403488,-1,0,-0
728,22406880,-1,-0,-0
729,22410288,-1,-0,0
730,22413672,-1,-0,0
731,22417080,-1,-0,0
732,22420476,-1,0,0
733,22423860,-1,0,0
734,22427260,-1,0,0
735,22433876,-1,0,-0
736,22437260,-1,0,-0
737,22440652,-1,0,-0
738,22444048,-1,0,-0
739,22447448,-1,0,-0
740,22450828,-1,0,-0
741,22454220,-1,0,-0
742,22457628,-2,0,-0
743,22461020,-1,0,0
744,22464396,-1,0,-0
745,22467796,-1,0,-0
746,22471192,-1,0,-0
747,22474588,-1,0,-1
748,22477980,-1,0,-1
749,22481364,-0,0,-1
750,22484764,-0,0,-1
751,22488164,0,0,-1
752,22491540,0,0,-1
753,22494916,0,0,-1
754,22498304,-0,0,-1
755,22501688,-0,1,-1
756,22505072,-0,1,-1
757,22508460,-1,0,-1
758,22511844,-1,1,-1
759,22515224,-1,0,-1
760,22521696,-2,0,-1
761,22525084,-2,0,-0
762,22528476,-3,0,-0
763,22531864,-3,0,-0
764,22535260,-3,0,-0
765,22538664,-4,0,-0
766,22542060,-4,0,-0
767,22545480,-4,0,-0
768,22548900,-4,0,-0
769,22552284,-4,0,0
770,22555688,-4,-0,-0
771,22559100,-4,-0,0
772,22562484,-3,-0,0
773,22565896,-3,-0,0
774,22569276,-2,-0,0
775,22572660,-2,-0,0
776,22576048,-2,-0,0
777,22579428,-1,-0,0
778,22582828,-1,-0,0
779,22586216,-1,-0,0
780,22589604,-0,0,0
781,22592992,-0,0,0
782,22596352,0,0,0
783,22599716,0,0,0
784,22606132,-0,0,0
785,22609504,-0,0,0
786,22612872,-0,0,0
787,22616256,-1,0,0
788,22619644,-1,0,0
789,22623036,-1,0,0
790,22626420,-1,-0,0
791,22629800,-1,-0,0
792,22633188,-1,-0,0
793,22636584,-2,-0,0
794,22639968,-2,-0,0
795,22643360,-2,-0,0
796,22646752,-2,0,0
797,22650128,-2,0,0
798,22653504,-2,0,0
799,22656900,-2,1,0
800,22660308,-2,1,-0
801,22663708,-2,1,-0
802,22667108,-2,1,-0
803,22670528,-2,1,-0
804,22673928,-2,1,-0
805,22677332,-2,1,0
806,22680724,-2,1,0
807,22684116,-2,1,-0
808,22687500,-2,1,0
809,22699244,-2,-0,0
810,22702628,-2,-0,0
811,22706028,-1,-0,0
812,22709408,-1,-0,0
813,22712792,-0,-1,1
814,22716188,-0,-1,1
815,22719588,-0,-1,1
816,22722984,-0,-1,1
817,22726364,0,-0,1
818,22729728,0,-1,1
819,22733100,0,-0,0
820,22736488,0,-0,0
821,22739864,0,-0,0
822,22743252,0,0,0
823,22746612,0,-0,0
824,22749980,0,0,0
825,22753352,1,0,0
826,22756724,1,1,0
827,22760088,1,-0,0
828,22763472,1,0,0
829,22766836,1,0,0
830,22770200,1,-0,0
831,22773588,1,-0,0
832,22776968,1,-0,0
833,22780356,1,-0,-0
834,22783740,0,-0,0
835,22790344,1,-0,0
836,22793720,1,-0,0
837,22797100,0,-0,0
838,22800488,0,0,0
839,22803852,-0,-0,0
840,22807240,-1,-0,0
841,22810648,-1,-0,0
842,22814036,-1,-0,0
843,22817428,-1,-0,0
844,22820816,-1,-0,0
845,22824216,-1,-0,0
846,22827620,-1,-1,0
847,22831012,-1,-1,1
848,22834412,-1,-1,1
849,22837796,-1,-1,1
850,22841196,-0,-1,1
851,22844596,-0,-1,1
852,22847988,0,-1,0
853,22851356,1,-0,1
854,22854740,1,-0,0
855,22858108,1,-0,1
856,22861464,1,-0,0
857,22864828,1,-0,0
858,22868204,1,0,0
859,22871576,2,-0,0
860,22878152,1,0,-0
861,22881524,1,0,0
862,22884896,1,0,-0
863,22888280,0,0,-0
864,22891668,0,-0,-0
865,22895072,-0,0,-0
866,22898468,-1,-0,-0
867,22901888,-1,0,-0
868,22905280,-1,-0,0
869,22908672,-1,0,-0
870,22912072,-2,-0,0
871,22915468,-2,-0,-0
872,22918868,-2,0,-0
873,22922272,-2,0,-0
874,22925660,-2,0,-0
875,22929052,-2,0,0
876,22932440,-2,0,-0
877,22935832,-2,0,-0
878,22939232,-1,0,-0
879,22942616,-1,1,0
880,22945996,-1,0,0
881,22949372,-1,0,0
882,22952732,-1,0,0
883,22956116,-0,0,0
884,22959488,-0,-0,0
885,22966068,0,-1,0
886,22969432,0,-1,0
887,22972808,1,-1,0
888,22976180,0,-1,0
889,22979572,1,-1,0
890,22982956,1,-1,0
891,22986348,1,-0,0
892,22989736,0,-0,0
893,22993120,1,-0,0
894,22996500,0,-0,0
895,22999884,1,-0,0
896,23003276,0,0,0
897,23006640,0,0,0
898,23010008,0,0,-0
899,23013388,-0,-1,-1
900,23016804,-1,-0,-1
901,23020212,-1,1,-1
902,23023632,-1,-0,-1
903,23027028,-1,0,-1
904,23030420,-2,1,-1
905,23033812,-2,0,-1
906,23037204,-3,0,-1
907,23040600,-3,0,-1
908,23043984,-3,1,-1
909,23047388,-3,1,-1
910,23054012,-4,1,-1
911,23057420,-4,1,-1
912,23060824,-3,1,-1
913,23064232,-3,2,-0
914,23067640,-3,2,-0
915,23071044,-3,2,-0
916,23074428,-2,2,0
917,23077792,-1,2,0
918,23081172,-1,2,1
919,23084540,-1,1,0
920,23087896,0,1,0
921,23091240,1,0,0
922,23094592,2,0,1
923,23097960,2,0,1
924,23101328,3,-0,1
925,23104716,4,-0,0
926,23108104,4,-0,0
927,23111480,4,-0,-0
928,23114888,4,-1,-0
929,23118280,4,-0,0
930,23121684,4,-0,-0
931,23125076,3,-0,-0
932,23128468,3,0,-0
933,23131852,2,0,-0
934,23135208,1,0,-0
935,23141796,-1,0,-1
936,23145184,-2,0,-1
937,23148588,-4,0,-0
938,23151976,-4,-0,-0
939,23155388,-5,-0,-0
940,23158796,-6,-0,0
941,23162188,-7,-0,0
942,23165572,-7,0,0
943,23168960,-8,0,0
944,23172340,-8,0,0
945,23175720,-8,0,1
946,23179112,-8,0,1
947,23182504,-7,0,1
948,23185892,-8,1,0
949,23189284,-7,-0,0
950,23192668,-6,0,0
951,23196032,-5,0,0
952,23199436,-5,1,-0
953,23202844,-5,1,-0
954,23206260,-4,1,-1
955,23209652,-4,1,-1
956,23213048,-3,1,-1
957,23216456,-3,2,-1
958,23219848,-3,2,-1
959,23223248,-2,2,-1
960,23229740,-3,3,-2
961,23233152,-3,3,-2
962,23236572,-3,3,-2
963,23239988,-4,3,-2
964,23243400,-4,3,-1
965,23246812,-4,3,-1
966,23250220,-4,3,-1
967,23253616,-4,2,-0
968,23257016,-4,2,0
969,23260396,-4,2,1
970,23263752,-3,1,1
971,23267128,-3,1,1
972,23270520,-3,1,0
973,23273912,-3,1,-0
974,23277296,-2,1,-0
975,23280692,-2,1,-1
976,23284072,-2,1,-1
977,23287464,-1,1,-1
978,23290720,-1,1,-1
979,23294124,-2,1,-1
980,23297488,-2,1,-0
981,23300888,-2,1,-0
982,23304284,-2,2,-0
983,23307692,-3,2,-1
984,23314160,-3,3,-1
985,23317584,-4,3,-0
986,23320992,-4,3,-0
987,23324396,-4,4,-1
988,23327804,-4,4,-0
989,23331212,-4,4,-1
990,23334636,-4,4,-1
991,23338048,-3,4,-1
992,23341456,-3,4,-1
993,23344844,-2,4,-0
994,23348240,-1,4,-0
995,23351620,-1,4,0
996,23354992,-0,3,1
997,23358368,-0,2,1
998,23361720,1,1,2
999,23365072,2,1,2
1000,23368416,3,0,1
1001,23371816,3,-0,2
1002,23375204,3,-1,2
1003,23378576,4,-1,2
1004,23381956,4,-0,2
1005,23385356,4,-1,2
1006,23388752,3,-0,1
1007,23392168,3,2,0
1008,23395556,3,3,0
1009,23402148,1,5,0
1010,23405540,1,6,0
1011,23408944,0,6,0
1012,23412344,0,6,0
1013,23415724,1,6,1
1014,23419104,1,6,2
1015,23422476,2,6,3
1016,23425880,3,5,4
1017,23429288,3,5,5
1018,23432540,3,4,5
1019,23435948,4,4,5
1020,23439344,4,4,5
1021,23442732,3,4,5
1022,23446128,3,5,5
1023,23449532,2,5,4
1024,23452912,2,5,4
1025,23456288,1,5,3
1026,23459692,-0,5,3
1027,23463100,-2,5,2
1028,23466476,-2,5,2
1029,23469868,-2,5,1
1030,23473272,-3,5,1
1031,23476672,-4,6,1
1032,23480076,-6,7,0
1033,23483484,-7,7,0
1034,23490108,-8,7,0
1035,23493520,-8,7,1
1036,23496940,-8,7,1
1037,23500340,-8,6,1
1038,23503744,-6,5,1
1039,23507156,-5,3,2
1040,23510572,-4,3,2
1041,23513980,-3,2,3
1042,23517384,-2,1,4
1043,23520788,-2,-1,5
1044,23524192,-0,-1,5
1045,23527596,2,-2,5
1046,23530976,2,-2,5
1047,23534372,3,-2,4
1048,23537784,2,-2,4
1049,23541184,3,-2,4
1050,23544580,5,-2,5
1051,23547992,7,-2,4
1052,23551392,8,-2,4
1053,23554788,7,-3,4
1054,23558216,8,-3,4
1055,23561644,9,-5,4
1056,23565060,10,-5,5
1057,23568488,9,-6,5
1058,23571888,7,-8,5
1059,23578504,8,-11,5
1060,23581940,9,-13,5
1061,23585368,9,-15,6
1062,23588792,8,-17,6
1063,23592232,8,-18,6
1064,23595660,8,-19,6
1065,23599088,8,-20,7
1066,23602540,8,-21,7
1067,23605960,7,-22,7
1068,23609408,7,-23,7
1069,23612832,6,-23,7
1070,23616256,5,-23,7
1071,23619700,4,-23,7
1072,23623116,2,-23,6
1073,23626536,1,-23,5
1074,23629988,-0,-23,5
1075,23633428,-2,-22,4
1076,23636884,-3,-22,4
1077,23640348,-4,-22,4
1078,23643800,-5,-22,4
1079,23647260,-5,-22,3
1080,23650708,-5,-22,3
1081,23654168,-6,-23,3
1082,23660832,-5,-23,3
1083,23664280,-4,-24,3
1084,23667744,-3,-24,3
1085,23671192,-2,-25,3
1086,23674640,-1,-24,3
1087,23678108,-0,-25,3
1088,23681572,-0,-25,3
1089,23685004,1,-24,3
1090,23688436,1,-24,3
1091,23691884,2,-24,3
1092,23695332,3,-24,4
1093,23698784,4,-22,4
1094,23702208,4,-21,5
1095,23705680,4,-19,4
1096,23709104,4,-17,4
1097,23712536,3,-15,4
1098,23715984,1,-12,3
1099,23719276,-0,-9,2
1100,23722704,-1,-7,2
1101,23726140,-2,-5,2
1102,23729568,-3,-3,1
1103,23733008,-4,-1,1
1104,23736448,-5,1,2
1105,23743080,-6,4,2
1106,23746492,-5,5,2
1107,23749912,-5,6,2
1108,23753328,-5,8,3
1109,23756768,-5,8,3
1110,23760192,-6,9,3
1111,23763620,-6,9,3
1112,23767056,-5,9,3
1113,23770468,-4,9,3
1114,23773868,-5,9,3
1115,23777276,-5,7,3
1116,23780684,-6,7,3
1117,23784088,-8,7,3
1118,23787500,-9,6,2
1119,23790908,-11,6,2
1120,23794316,-13,5,2
1121,23797756,-14,3,1
1122,23801176,-14,3,1
1123,23804596,-14,2,2
1124,23808036,-13,1,2
1125,23811476,-13,-0,3
1126,23814916,-12,-1,4
1127,23818372,-10,-2,4
1128,23825032,-7,-4,5
1129,23828456,-5,-4,5
1130,23831888,-3,-4,6
1131,23835300,-1,-5,7
1132,23838712,0,-6,7
1133,23842108,2,-7,6
1134,23845516,3,-7,6
1135,23848948,3,-8,6
1136,23852372,4,-8,5
1137,23855784,4,-8,5
1138,23859192,4,-9,4
1139,23862612,3,-9,3
1140,23866024,2,-10,3
1141,23869416,1,-10,2
1142,23872816,1,-11,1
1143,23876212,1,-11,1
1144,23879636,1,-12,0
1145,23883056,0,-12,-0
1146,23886488,0,-12,-1
1147,23889932,1,-13,-1
1148,23893352,1,-13,-1
1149,23896780,2,-13,-1
1150,23900220,3,-12,-1
1151,23903656,4,-12,-1
1152,23910164,7,-12,-1
1153,23913628,10,-12,-0
1154,23917080,13,-11,0
1155,23920536,13,-12,-1
1156,23924016,10,-11,-3
1157,23927464,8,-12,-4
1158,23930920,8,-13,-5
1159,23934364,8,-14,-5
1160,23937808,8,-15,-6
1161,23941284,6,-16,-7
1162,23944748,5,-16,-8
1163,23948236,3,-17,-9
1164,23951708,2,-18,-10
1165,23955192,1,-18,-10
1166,23958684,-0,-18,-10
1167,23962200,-2,-19,-10
1168,23965716,-6,-19,-9
1169,23969060,-8,-19,-9
1170,23972544,-9,-18,-9
1171,23976068,-10,-18,-10
1172,23979616,-12,-17,-10
1173,23986268,-15,-17,-9
1174,23989800,-16,-17,-9
1175,23993316,-16,-16,-8
1176,23996848,-15,-15,-8
1177,24000360,-15,-14,-7
1178,24003884,-14,-14,-6
1179,24007392,-12,-13,-5
1180,24010912,-10,-12,-4
1181,24014412,-7,-11,-4
1182,24017896,-5,-10,-3
1183,24021376,-4,-10,-3
1184,24024832,-2,-9,-3
1185,24028284,-1,-9,-3
1186,24031736,1,-8,-3
1187,24035168,2,-7,-3
1188,24038608,4,-6,-3
1189,24042032,5,-6,-3
1190,24045476,6,-5,-4
1191,24048932,8,-5,-4
1192,24052372,9,-4,-4
1193,24055832,9,-4,-4
1194,24059268,9,-4,-5
1195,24065928,7,-4,-6
1196,24069364,7,-4,-6
1197,24072800,6,-4,-7
1198,24076244,4,-4,-7
1199,24079692,3,-5,-8
1200,24083116,2,-6,-8
1201,24086556,1,-6,-9
1202,24089976,0,-7,-9
1203,24093424,-1,-8,-10
1204,24096900,-2,-9,-10
1205,24100376,-2,-9,-10
1206,24103868,-2,-10,-9
1207,24107344,-2,-11,-9
1208,24110804,-2,-12,-9
1209,24114272,-1,-12,-8
1210,24117756,-0,-12,-8
1211,24121232,1,-14,-7
1212,24124656,2,-14,-6
1213,24128124,3,-14,-5
1214,24131580,3,-15,-5
1215,24135044,1,-15,-5
1216,24138500,-1,-16,-6
1217,24145216,-3,-15,-6
1218,24148688,-5,-14,-5
1219,24152180,-7,-14,-5
1220,24155680,-10,-13,-6
1221,24159208,-12,-13,-6
1222,24162728,-13,-12,-6
1223,24166244,-14,-11,-6
1224,24169768,-15,-10,-6
1225,24173292,-16,-9,-6
1226,24176780,-16,-8,-6
1227,24180264,-16,-6,-6
1228,24183760,-16,-4,-5
1229,24187236,-16,-2,-5
1230,24190692,-16,-1,-5
1231,24194148,-16,1,-5
1232,24197604,-15,3,-5
1233,24201060,-15,4,-5
1234,24204520,-14,5,-4
1235,24207972,-14,6,-5
1236,24211412,-12,7,-3
1237,24214868,-10,8,-5
1238,24218300,-9,8,-4
1239,24224956,-9,8,-7
1240,24228396,-8,7,-7
1241,24231848,-6,7,-8
1242,24235292,-6,7,-9
1243,24238728,-6,6,-9
1244,24242152,-5,7,-10
1245,24245616,-3,7,-10
1246,24249052,-1,6,-11
1247,24252512,-1,6,-12
1248,24255968,-1,7,-13
1249,24259444,-2,7,-14
1250,24262904,-3,7,-14
1251,24266356,-3,6,-15
1252,24269672,-4,6,-16
1253,24273120,-4,6,-16
1254,24276580,-4,6,-16
1255,24280028,-4,5,-16
1256,24283484,-3,4,-16
1257,24286916,-2,3,-16
1258,24290372,-1,2,-15
1259,24293804,-1,1,-15
1260,24297256,-2,0,-15
1261,24303912,-3,-2,-15
1262,24307368,-3,-3,-14
1263,24310860,-3,-4,-14
1264,24314320,-2,-5,-13
1265,24317788,-1,-5,-13
1266,24321252,-0,-7,-12
1267,24324716,1,-7,-11
1268,24328164,2,-7,-10
1269,24331620,4,-8,-10
1270,24335060,6,-8,-9
1271,24338520,8,-10,-8
1272,24341980,10,-10,-7
1273,24345460,11,-10,-6
1274,24348944,11,-10,-6
1275,24352416,12,-10,-6
1276,24355912,12,-10,-6
1277,24359384,11,-9,-6
1278,24362880,10,-10,-6
1279,24366356,8,-9,-6
1280,24369808,6,-9,-6
1281,24373236,6,-9,-6
1282,24376676,5,-8,-6
1283,24383320,2,-8,-6
1284,24386748,0,-8,-6
1285,24390176,-1,-8,-6
1286,24393620,-2,-8,-7
1287,24397056,-2,-8,-7
1288,24400504,-2,-7,-8
1289,24403960,-2,-8,-8
1290,24407424,-3,-7,-8
1291,24410860,-3,-6,-9
1292,24414308,-3,-5,-10
1293,24417764,-3,-4,-10
1294,24421244,-4,-3,-11
1295,24424696,-5,-2,-12
1296,24428164,-5,-0,-13
1297,24431624,-5,2,-14
1298,24435084,-6,3,-15
1299,24438524,-6,5,-15
1300,24441992,-7,7,-16
1301,24445436,-8,8,-17
1302,24448900,-8,10,-18
1303,24452384,-8,11,-19
1304,24455848,-9,12,-19
1305,24462540,-8,14,-20
1306,24466004,-8,15,-20
1307,24469500,-9,16,-21
1308,24472992,-10,17,-21
1309,24476504,-10,17,-21
1310,24480024,-11,19,-21
1311,24483540,-11,19,-21
1312,24487056,-12,19,-21
1313,24490564,-12,19,-21
1314,24494104,-12,20,-20
1315,24497616,-12,20,-19
1316,24501128,-12,20,-18
1317,24504648,-11,20,-18
1318,24508148,-9,20,-16
1319,24511620,-8,20,-13
1320,24515068,-4,21,-10
1321,24518544,-2,20,-9
1322,24521976,-1,20,-7
1323,24525392,1,21,-5
1324,24528828,3,21,-4
1325,24532248,3,22,-4
1326,24538764,6,20,-2
1327,24542180,6,21,-1
1328,24545620,6,21,-0
1329,24549040,6,20,1
1330,24552464,6,20,1
1331,24555872,6,19,2
1332,24559284,4,20,2
1333,24562720,4,20,2
1334,24566164,4,20,2
1335,24569576,3,20,2
1336,24572992,3,20,2
1337,24576400,2,20,2
1338,24579780,2,21,1
1339,24583180,2,21,1
1340,24586584,2,21,1
1341,24589980,1,21,-0
1342,24593416,0,21,-1
1343,24596864,-0,20,-3
1344,24600316,-0,20,-4
1345,24603768,0,20,-5
1346,24607220,-0,20,-7
1347,24610680,-0,19,-9
1348,24614132,0,18,-10
1349,24617576,2,17,-11
1350,24624156,6,14,-14
1351,24627624,7,12,-15
1352,24631092,8,10,-17
1353,24634556,7,9,-18
1354,24637996,6,8,-19
1355,24641444,6,7,-21
1356,24644900,6,6,-22
1357,24648344,4,7,-23
1358,24651768,3,5,-24
1359,24655208,3,5,-24
1360,24658644,5,4,-24
1361,24662076,7,2,-23
1362,24665516,9,1,-23
1363,24668980,8,-1,-22
1364,24672460,7,-4,-22
1365,24675924,7,-5,-23
1366,24679384,7,-6,-23
1367,24682852,7,-7,-22
1368,24686320,7,-9,-22
1369,24689772,7,-9,-21
1370,24693224,7,-11,-20
1371,24696708,7,-12,-19
1372,24700188,7,-13,-18
1373,24706860,4,-14,-17
1374,24710316,2,-15,-17
1375,24713764,0,-16,-16
1376,24717232,-0,-16,-15
1377,24720748,-2,-16,-14
1378,24724252,-3,-16,-14
1379,24727768,-5,-17,-14
1380,24731280,-6,-17,-14
1381,24734800,-6,-17,-14
1382,24738300,-7,-17,-14
1383,24741812,-8,-17,-14
1384,24745336,-8,-17,-14
1385,24748852,-8,-17,-15
1386,24752368,-8,-16,-15
1387,24755868,-8,-16,-15
1388,24759400,-7,-16,-16
1389,24762908,-6,-15,-16
1390,24766412,-6,-15,-16
1391,24769940,-6,-14,-16
1392,24773444,-6,-14,-17
1393,24780144,-7,-12,-18
1394,24783656,-8,-11,-19
1395,24787184,-9,-10,-20
1396,24790704,-10,-9,-20
1397,24794224,-11,-8,-21
1398,24797740,-11,-6,-21
1399,24801284,-12,-5,-21
1400,24804804,-12,-4,-22
1401,24808316,-12,-2,-22
1402,24811828,-12,-1,-22
1403,24815320,-11,0,-22
1404,24818788,-10,2,-22
1405,24822252,-9,3,-22
1406,24825708,-8,4,-23
1407,24829156,-7,4,-23
1408,24832604,-6,5,-23
1409,24836052,-5,5,-23
1410,24839508,-5,6,-23
1411,24842952,-4,6,-24
1412,24846412,-3,5,-24
1413,24849864,-3,5,-25
1414,24853312,-2,5,-25
1415,24859924,-2,4,-25
1416,24863368,-1,4,-25
1417,24866812,-1,3,-25
1418,24870260,-1,2,-25
1419,24873688,-1,2,-25
1420,24877136,-0,1,-25
1421,24880572,0,-0,-24
1422,24883996,1,-1,-24
1423,24887440,1,-2,-24
1424,24890892,0,-3,-23
1425,24894352,0,-5,-23
1426,24897804,1,-6,-23
1427,24901260,0,-7,-23
1428,24904724,-0,-9,-23
1429,24908196,-1,-10,-23
1430,24911688,-0,-11,-23
1431,24915196,-0,-12,-23
1432,24918676,0,-13,-24
1433,24922152,-0,-13,-24
1434,24925640,-0,-13,-25
1435,24929144,-0,-13,-26
1436,24935820,0,-12,-26
1437,24939276,1,-11,-27
1438,24942760,1,-10,-27
1439,24946212,1,-9,-27
1440,24949652,1,-7,-28
1441,24953104,1,-6,-29
1442,24956540,1,-5,-29
1443,24959980,1,-4,-30
1444,24963432,1,-3,-30
1445,24966856,-0,-2,-30
1446,24970312,-1,-1,-31
1447,24973752,-1,0,-32
1448,24977152,-0,1,-32
1449,24980600,-0,2,-32
1450,24984012,0,3,-32
1451,24987420,1,4,-32
1452,24990852,2,4,-32
1453,24994284,3,5,-32
1454,24997708,5,6,-32
1455,25001136,6,6,-32
1456,25004568,7,7,-32
1457,25008004,8,8,-32
1458,25011448,9,8,-32
1459,25018108,10,10,-32
1460,25021592,10,11,-33
1461,25025068,10,12,-33
1462,25028540,9,13,-34
1463,25032000,9,14,-34
1464,25035460,8,14,-35
1465,25038924,7,15,-35
1466,25042396,7,15,-35
1467,25045864,6,16,-35
1468,25049332,5,16,-36
1469,25052800,4,16,-36
1470,25056280,4,16,-36
1471,25059760,4,16,-36
1472,25063224,4,15,-36
1473,25066700,4,15,-37
1474,25070160,4,14,-37
1475,25073616,4,13,-37
1476,25077084,5,12,-37
1477,25080560,5,11,-37
1478,25084056,6,10,-36
1479,25087524,6,9,-36
1480,25090984,7,8,-36
1481,25097652,7,7,-36
1482,25101116,7,6,-35
1483,25104584,6,5,-35
1484,25108032,6,4,-35
1485,25111476,6,4,-35
1486,25114932,5,3,-35
1487,25118376,5,3,-35
1488,25121832,5,2,-35
1489,25125284,5,1,-35
1490,25128732,5,1,-35
1491,25132180,6,0,-35
1492,25135604,6,-0,-35
1493,25139056,5,-1,-35
1494,25142516,5,-1,-36
1495,25145956,5,-2,-36
1496,25149400,6,-2,-36
1497,25152860,5,-2,-37
1498,25156328,5,-2,-37
1499,25159788,6,-2,-38
1500,25163244,6,-2,-38
1501,25166704,7,-2,-39
1502,25170160,8,-2,-39
1503,25173636,8,-2,-39
1504,25180180,9,-2,-40
1505,25183620,10,-1,-40
1506,25187080,10,-1,-40
1507,25190544,10,-1,-41
1508,25194008,10,-1,-41
1509,25197476,9,-1,-42
1510,25200936,8,-2,-42
1511,25204392,7,-1,-43
1512,25207852,5,-2,-43
1513,25211308,4,-2,-44
1514,25214760,3,-2,-44
1515,25218208,1,-2,-45
1516,25221632,0,-2,-45
1517,25225076,-1,-2,-46
1518,25228536,-1,-2,-46
1519,25231996,-2,-2,-47
1520,25235492,-3,-2,-47
1521,25238940,-3,-1,-48
1522,25242396,-3,-1,-48
1523,25245736,-3,-1,-48
1524,25249188,-3,-1,-48
1525,25255712,-2,0,-49
1526,25259168,-2,0,-49
1527,25262616,-1,1,-49
1528,25266068,-0,1,-49
1529,25269516,-0,1,-49
1530,25272956,-0,1,-49
1531,25276400,-0,1,-49
1532,25279852,-0,1,-49
1533,25283292,-1,1,-49
1534,25286756,-1,1,-49
1535,25290228,-2,1,-49
1536,25293680,-3,1,-49
1537,25297144,-4,0,-48
1538,25300612,-4,0,-48
1539,25304080,-5,0,-48
1540,25307520,-5,0,-47
1541,25310952,-5,0,-47
1542,25314416,-6,0,-46
1543,25317864,-6,0,-46
1544,25321316,-6,0,-46
1545,25324768,-6,0,-45
1546,25328228,-6,-0,-45
1547,25331724,-6,-0,-45
1548,25343384,-6,-2,-47
1549,25346864,-6,-2,-47
1550,25350356,-6,-3,-47
1551,25353852,-6,-3,-48
1552,25357368,-6,-4,-48
1553,25360848,-6,-4,-49
1554,25364352,-6,-5,-49
1555,25367836,-6,-5,-50
1556,25371324,-6,-6,-51
1557,25374836,-6,-6,-51
1558,25378332,-6,-6,-51
1559,25381832,-5,-6,-52
1560,25385340,-5,-6,-52
1561,25388828,-4,-5,-52
1562,25392316,-4,-5,-53
1563,25395796,-4,-4,-53
1564,25399300,-3,-4,-53
1565,25402772,-2,-4,-54
1566,25406232,-1,-4,-54
1567,25409716,-0,-4,-54
1568,25413180,0,-4,-54
1569,25419864,1,-5,-55
1570,25423320,1,-5,-56
1571,25426780,2,-5,-56
1572,25430248,1,-5,-56
1573,25433728,1,-6,-57
1574,25437204,-0,-6,-58
1575,25440700,-1,-7,-58
1576,25444180,-2,-7,-58
1577,25447676,-2,-8,-58
1578,25451184,-3,-8,-59
1579,25454688,-4,-8,-59
1580,25458172,-4,-8,-59
1581,25461648,-5,-8,-60
1582,25465136,-5,-9,-60
1583,25468608,-4,-8,-60
1584,25472112,-4,-8,-60
1585,25475608,-4,-8,-60
1586,25479104,-4,-7,-61
1587,25482588,-3,-7,-61
1588,25486084,-2,-7,-61
1589,25489560,-1,-6,-60
1590,25496232,-1,-5,-60
1591,25499712,-2,-5,-60
1592,25503176,-2,-5,-60
1593,25506660,-2,-5,-61
1594,25510148,-3,-4,-61
1595,25513628,-4,-4,-61
1596,25517124,-5,-4,-61
1597,25520592,-5,-4,-61
1598,25524060,-6,-4,-61
1599,25527552,-6,-5,-61
1600,25531028,-6,-5,-61
1601,25534512,-6,-5,-61
1602,25537988,-7,-4,-61
1603,25541476,-6,-5,-61
1604,25544944,-5,-5,-61
1605,25548428,-5,-5,-60
1606,25551944,-4,-5,-60
1607,25555428,-3,-4,-59
1608,25558912,-2,-5,-59
1609,25562388,-1,-5,-58
1610,25565872,0,-5,-58
1611,25569348,1,-4,-57
1612,25575992,2,-4,-56
1613,25579448,1,-5,-56
1614,25582904,1,-5,-55
1615,25586372,-1,-5,-55
1616,25589872,-2,-5,-55
1617,25593348,-2,-5,-54
1618,25596832,-3,-5,-54
1619,25600320,-3,-5,-53
1620,25603800,-4,-5,-53
1621,25607288,-4,-6,-53
1622,25610760,-4,-6,-54
1623,25614256,-4,-6,-54
1624,25617744,-4,-6,-54
1625,25621224,-3,-6,-54
1626,25624700,-2,-6,-54
1627,25628152,-1,-6,-55
1628,25631612,-0,-6,-55
1629,25635064,1,-5,-55
1630,25638504,2,-5,-56
1631,25641948,2,-4,-56
1632,25645392,3,-3,-56
1633,25652056,3,-2,-56
1634,25655512,3,-1,-56
1635,25658940,2,-0,-56
1636,25662384,2,-0,-56
1637,25665828,0,0,-56
1638,25669248,-0,1,-56
1639,25672676,-1,1,-56
1640,25676112,-2,1,-56
1641,25679552,-2,1,-56
1642,25682988,-2,1,-55
1643,25686408,-2,1,-55
1644,25689832,-1,1,-55
1645,25693268,-0,0,-54
1646,25696708,1,0,-54
1647,25700128,2,1,-53
1648,25703568,4,1,-52
1649,25706984,5,1,-52
1650,25710424,6,1,-51
1651,25713852,7,1,-51
1652,25717272,8,2,-50
1653,25720696,8,2,-49
1654,25724132,8,2,-49
1655,25727564,9,2,-48
1656,25734204,8,2,-46
1657,25737628,8,1,-46
1658,25741048,7,0,-46
1659,25744484,7,-0,-45
1660,25747932,6,-1,-45
1661,25751372,6,-2,-45
1662,25754836,5,-2,-44
1663,25758284,5,-3,-44
1664,25761736,5,-3,-44
1665,25765200,4,-3,-44
1666,25768648,4,-4,-44
1667,25772112,3,-4,-45
1668,25775564,2,-4,-45
1669,25779004,1,-4,-45
1670,25782456,1,-4,-45
1671,25785892,-0,-3,-46
1672,25789340,-1,-3,-46
1673,25792792,-2,-2,-46
1674,25796268,-3,-2,-45
1675,25799752,-3,-1,-45
1676,25803204,-4,-1,-45
1677,25806660,-4,-0,-44
1678,25813196,-5,0,-43
1679,25816628,-6,1,-43
1680,25820076,-6,1,-43
1681,25823520,-6,1,-42
1682,25826964,-5,1,-42
1683,25830396,-5,2,-41
1684,25833716,-5,2,-41
1685,25837172,-4,3,-40
1686,25840612,-3,4,-40
1687,25844052,-3,5,-40
1688,25847500,-2,5,-40
1689,25850952,-2,6,-40
1690,25854380,-1,6,-40
1691,25857824,-1,6,-41
1692,25861264,-0,7,-40
1693,25864700,0,6,-40
1694,25868148,0,6,-40
1695,25871584,0,6,-40
1696,25875032,-0,6,-40
1697,25878504,-1,5,-40
1698,25881968,-1,4,-40
1699,25885428,-2,3,-39
1700,25888896,-2,2,-39
1701,25895396,-4,1,-38
1702,25898884,-5,-0,-38
1703,25902360,-6,-1,-38
1704,25905828,-7,-2,-38
1705,25909316,-8,-2,-38
1706,25912780,-9,-3,-38
1707,25916268,-10,-3,-38
1708,25919796,-11,-4,-39
1709,25923308,-12,-4,-39
1710,25926832,-12,-4,-40
1711,25930336,-12,-4,-40
1712,25933844,-12,-3,-40
1713,25937360,-12,-3,-40
1714,25940860,-11,-3,-40
1715,25944368,-10,-2,-40
1716,25947852,-9,-2,-40
1717,25951312,-8,-1,-39
1718,25954768,-6,-1,-39
1719,25958256,-5,-1,-37
1720,25961720,-4,-0,-36
1721,25965180,-2,-0,-35
1722,25971868,1,-0,-32
1723,25975312,2,-0,-31
1724,25978764,4,-1,-29
1725,25982216,5,-1,-27
1726,25985660,6,-1,-26
1727,25989100,7,-2,-24
1728,25992560,7,-2,-23
1729,25996008,8,-3,-22
1730,25999464,8,-3,-21
1731,26002916,7,-3,-20
1732,26006372,7,-3,-19
1733,26009832,5,-4,-19
1734,26013288,5,-4,-19
1735,26016748,3,-4,-19
1736,26020188,1,-5,-19
1737,26023648,-0,-5,-19
1738,26027140,-2,-6,-19
1739,26030616,-4,-6,-20
1740,26034100,-5,-6,-20
1741,26037580,-6,-7,-20
1742,26041040,-8,-7,-21
1743,26044512,-9,-7,-21
1744,26051196,-11,-7,-22
1745,26054728,-11,-7,-22
1746,26058236,-11,-7,-22
1747,26061756,-11,-6,-22
1748,26065280,-11,-5,-22
1749,26068800,-10,-5,-21
1750,26072316,-9,-4,-21
1751,26075796,-7,-2,-20
1752,26079284,-6,-1,-20
1753,26082740,-5,-0,-19
1754,26086212,-4,1,-18
1755,26089672,-4,2,-17
1756,26093124,-3,3,-16
1757,26096592,-2,4,-15
1758,26100048,-2,4,-13
1759,26103516,-2,5,-13
1760,26107000,-2,6,-12
1761,26110464,-2,6,-11
1762,26113928,-2,6,-10
1763,26117396,-2,6,-10
1764,26120856,-3,6,-10
1765,26132268,-3,6,-9
1766,26135712,-2,6,-9
1767,26139152,-2,6,-10
1768,26142620,-2,6,-10
1769,26146088,-2,6,-10
1770,26149532,-2,6,-11
1771,26152988,-2,6,-11
1772,26156444,-2,7,-12
1773,26159900,-2,7,-12
1774,26163376,-2,7,-13
1775,26166840,-3,7,-14
1776,26170304,-3,7,-14
1777,26173776,-4,8,-15
1778,26177236,-4,8,-15
1779,26180712,-5,8,-15
1780,26184172,-6,8,-16
1781,26187628,-6,8,-16
1782,26191088,-6,8,-16
1783,26194560,-6,7,-16
1784,26198012,-5,7,-15
1785,26201472,-4,7,-15
1786,26204920,-3,7,-14
1787,26208372,-1,7,-14
1788,26216064,1,6,-13
1789,26219492,3,6,-12
1790,26222920,5,6,-11
1791,26226368,6,6,-11
1792,26229820,7,6,-10
1793,26233256,8,6,-10
1794,26236696,9,6,-10
1795,26240144,10,6,-9
1796,26243584,10,6,-9
1797,26247036,10,6,-9
1798,26250480,10,6,-9
1799,26253904,9,6,-8
1800,26257320,9,6,-8
1801,26260728,8,6,-8
1802,26264136,7,6,-9
1803,26267564,5,6,-9
1804,26270988,4,6,-9
1805,26274404,3,6,-9
1806,26277828,2,6,-10
1807,26281240,2,6,-10
1808,26284652,1,6,-10
1809,26288068,2,6,-10
1810,26291468,1,6,-11
1811,26298080,2,6,-11
1812,26301500,2,6,-11
1813,26304928,2,6,-11
1814,26308376,3,6,-11
1815,26311836,3,7,-11
1816,26315260,3,6,-11
1817,26318696,2,6,-11
1818,26322124,1,6,-11
1819,26325556,1,6,-11
1820,26328992,-1,5,-11
1821,26332464,-2,5,-11
1822,26335924,-3,4,-11
1823,26339392,-4,3,-11
1824,26342844,-5,1,-11
1825,26346292,-5,-0,-10
1826,26349764,-5,-1,-10
1827,26353232,-5,-3,-10
1828,26356724,-4,-4,-10
1829,26360192,-3,-5,-9
1830,26363628,-1,-6,-9
1831,26367088,-0,-7,-8
1832,26370536,2,-8,-8
1833,26373972,4,-9,-7
1834,26380636,9,-9,-6
1835,26384076,11,-8,-5
1836,26387556,13,-7,-4
1837,26391036,14,-6,-4
1838,26394512,15,-6,-3
1839,26397988,16,-6,-4
1840,26401452,16,-5,-3
1841,26404924,16,-5,-3
1842,26408388,15,-5,-3
1843,26411876,15,-4,-4
1844,26415344,13,-4,-4
1845,26418824,11,-4,-4
1846,26422300,10,-4,-5
1847,26425764,7,-4,-5
1848,26429204,6,-4,-6
1849,26432648,4,-4,-6
1850,26436076,2,-4,-6
1851,26439508,-0,-4,-7
1852,26442976,-2,-3,-8
1853,26446432,-3,-4,-8
1854,26449884,-4,-3,-8
1855,26453332,-5,-3,-8
1856,26459856,-4,-3,-8
1857,26463308,-3,-3,-7
1858,26466748,-2,-3,-6
1859,26470208,-1,-2,-5
1860,26473664,-0,-2,-5
1861,26477088,-0,-2,-4
1862,26480516,-0,-2,-3
1863,26483972,-1,-2,-3
1864,26487416,-1,-2,-3
1865,26490852,-1,-2,-3
1866,26494288,-2,-3,-3
1867,26497736,-2,-3,-3
1868,26501200,-3,-2,-4
1869,26504656,-4,-2,-4
1870,26508096,-4,-2,-5
1871,26511556,-5,-2,-6
1872,26514984,-6,-1,-7
1873,26518400,-6,-1,-8
1874,26521864,-6,-1,-9
1875,26525320,-6,-1,-10
1876,26528816,-5,-1,-11
1877,26532272,-5,-1,-12
1878,26539104,-5,0,-14
1879,26542544,-5,1,-15
1880,26546008,-5,1,-16
1881,26549452,-4,1,-17
1882,26552904,-5,2,-17
1883,26556360,-4,2,-18
1884,26559816,-4,2,-18
1885,26563256,-3,2,-18
1886,26566708,-1,3,-18
1887,26570160,-0,3,-18
1888,26573608,1,3,-17
1889,26577048,2,3,-16
1890,26580480,3,3,-16
1891,26583904,5,2,-15
1892,26587336,5,2,-15
1893,26590740,6,2,-14
1894,26594140,7,1,-13
1895,26597564,7,1,-12
1896,26600980,7,1,-11
1897,26604388,7,0,-10
1898,26607800,6,1,-10
1899,26611200,5,0,-9
1900,26614596,4,0,-9
1901,26621188,1,0,-9
1902,26624564,0,0,-9
1903,26627968,-1,1,-9
1904,26631392,-2,1,-9
1905,26634784,-2,1,-9
1906,26638200,-3,2,-9
1907,26641640,-3,2,-9
1908,26645068,-3,3,-9
1909,26648492,-3,4,-9
1910,26651916,-2,4,-9
1911,26655328,-1,6,-9
1912,26658764,-1,7,-9
1913,26662184,-0,8,-8
1914,26665600,1,9,-8
1915,26669012,2,11,-7
1916,26672444,3,12,-6
1917,26675868,3,13,-6
1918,26679316,3,14,-5
1919,26682744,4,15,-5
1920,26686188,4,16,-4
1921,26689644,4,17,-3
1922,26693060,5,17,-2
1923,26696480,5,18,-1
1924,26699928,4,18,0
1925,26706532,3,17,1
1926,26709936,2,17,2
1927,26713328,1,16,2
1928,26716732,0,15,2
1929,26720148,-1,14,2
1930,26723568,-2,13,3
1931,26727004,-3,12,3
1932,26730436,-4,11,3
1933,26733880,-5,10,3
1934,26737304,-5,9,4
1935,26740724,-5,8,4
1936,26744148,-5,7,5
1937,26747568,-5,6,5
1938,26751000,-5,5,5
1939,26754416,-5,4,6
1940,26757844,-4,3,6
1941,26761288,-4,3,6
1942,26764704,-4,2,6
1943,26768116,-3,2,7
1944,26771532,-3,2,7
1945,26774944,-3,3,7
1946,26778352,-4,3,7
1947,26781796,-5,3,6
1948,26785208,-6,4,6
1949,26791836,-7,4,6
1950,26795272,-8,5,5
1951,26798688,-9,6,5
1952,26802108,-9,6,5
1953,26805540,-9,7,4
1954,26808964,-9,7,4
1955,26812400,-9,8,4
1956,26815836,-8,8,4
1957,26819260,-7,8,4
1958,26822696,-6,8,5
1959,26826124,-4,8,5
1960,26829544,-3,7,5
1961,26832972,-2,7,5
1962,26836384,-0,6,6
1963,26839788,1,6,6
1964,26843200,2,5,7
1965,26846604,3,4,8
1966,26850000,4,4,8
1967,26853412,4,4,9
1968,26856792,5,3,9
1969,26860188,6,3,9
1970,26863596,6,3,10
1971,26867032,7,2,10
1972,26870444,8,2,10
1973,26877076,11,2,11
1974,26880516,11,2,11
1975,26883956,12,2,11
1976,26887412,13,3,11
1977,26890864,14,3,12
1978,26894304,14,3,12
1979,26897760,14,4,12
1980,26901196,13,4,12
1981,26904660,11,4,13
1982,26908100,9,3,12
1983,26911516,7,3,12
1984,26914936,5,3,12
1985,26918332,2,2,12
1986,26921748,-1,1,12
1987,26925208,-4,-1,12
1988,26928684,-6,-3,12
1989,26932156,-8,-4,12
1990,26935620,-9,-7,12
1991,26939088,-10,-9,12
1992,26942596,-10,-11,13
1993,26946120,-9,-13,13
1994,26949628,-6,-15,14
1995,26953116,-3,-17,15
1996,26959824,5,-18,17
1997,26963300,9,-18,18
1998,26966772,13,-17,19
1999,26970272,16,-16,19
2000,26973764,19,-14,19
2001,26977256,22,-12,19
2002,26980752,24,-10,19
2003,26984232,25,-7,19
2004,26987704,26,-5,18
2005,26991168,26,-2,17
2006,26994500,25,0,17
2007,26997940,24,2,15
2008,27001404,22,5,14
2009,27004848,20,5,13
2010,27008300,19,6,12
2011,27011748,18,7,11
2012,27015200,15,7,10
2013,27018632,12,7,9
2014,27022064,9,6,9
2015,27025480,7,5,8
2016,27028884,6,4,9
2017,27032300,4,4,9
2018,27035712,4,5,10
2019,27042324,3,5,14
2020,27045748,4,6,16
2021,27049172,4,8,17
2022,27052580,4,9,19
2023,27056000,4,10,21
2024,27059448,5,12,22
2025,27062876,5,13,24
2026,27066312,5,16,25
2027,27069752,5,17,25
2028,27073200,5,18,25
2029,27076664,4,20,24
2030,27080100,2,21,23
2031,27083548,1,22,21
2032,27086996,-1,21,20
2033,27090456,-2,21,19
2034,27093920,-2,20,17
2035,27097388,-2,19,16
2036,27100824,-1,18,16
2037,27104272,1,16,16
2038,27107712,3,14,17
2039,27111132,5,12,17
2040,27114568,7,9,17
2041,27117964,8,7,17
2042,27121388,9,4,17
2043,27127896,11,-2,18
2044,27131360,12,-4,18
2045,27134832,12,-7,20
2046,27138304,12,-9,21
2047,27141780,12,-11,22
2048,27145292,11,-13,23
2049,27148784,10,-14,24
2050,27152288,9,-15,25
2051,27155752,7,-16,26
2052,27159196,4,-15,25
2053,27162616,1,-14,25
2054,27166056,-2,-13,24
2055,27169520,-5,-11,23
2056,27172996,-8,-9,22
2057,27176452,-11,-6,21
2058,27179940,-15,-4,20
2059,27183412,-18,-1,19
2060,27186876,-19,1,19
2061,27190344,-19,3,19
2062,27193804,-18,5,19
2063,27197264,-17,7,19
2064,27200732,-15,9,19
2065,27207288,-11,11,19
2066,27210788,-8,12,19
2067,27214244,-5,12,20
2068,27217712,-2,12,20
2069,27221152,0,11,20
2070,27224588,2,10,21
2071,27228044,3,8,21
2072,27231340,3,6,20
2073,27234776,3,4,20
2074,27238196,2,2,20
2075,27241612,-0,-0,19
2076,27245056,-3,-2,19
2077,27248504,-6,-5,18
2078,27251968,-9,-6,18
2079,27255436,-12,-8,18
2080,27258928,-15,-10,19
2081,27262440,-18,-12,19
2082,27265952,-22,-14,19
2083,27269472,-24,-15,20
2084,27272972,-26,-16,21
2085,27276480,-27,-16,22
2086,27279988,-28,-17,23
2087,27286700,-27,-18,25
2088,27290220,-26,-19,26
2089,27293752,-23,-20,27
2090,27297260,-20,-20,28
2091,27300772,-18,-21,29
2092,27304296,-16,-22,29
2093,27307820,-14,-23,30
2094,27311340,-13,-24,29
2095,27314848,-11,-25,29
2096,27318364,-9,-25,29
2097,27321832,-7,-26,29
2098,27325328,-6,-26,30
2099,27328808,-4,-27,29
2100,27332308,-3,-27,29
2101,27335656,-3,-27,29
2102,27339136,-3,-27,29
2103,27342612,-3,-27,28
2104,27346092,-3,-26,28
2105,27349560,-3,-26,29
2106,27353040,-2,-25,29
2107,27356512,-2,-25,29
2108,27363204,-1,-23,30
2109,27366668,-1,-21,30
2110,27370140,-1,-20,30
2111,27373636,-1,-19,31
2112,27377096,-1,-17,31
2113,27380580,-1,-16,30
2114,27384048,-1,-15,30
2115,27387520,-1,-14,29
2116,27391004,-1,-13,28
2117,27394464,-1,-12,27
2118,27397932,-1,-10,26
2119,27401412,-2,-8,25
2120,27404860,-2,-7,24
2121,27408308,-1,-6,23
2122,27411760,-1,-5,22
2123,27415204,-0,-3,22
2124,27418648,-0,-2,21
2125,27422088,-0,-1,20
2126,27425528,-1,0,20
2127,27428972,-1,2,19
2128,27432408,-0,2,19
2129,27439064,-0,3,19
2130,27442508,-1,3,19
2131,27445944,-1,2,18
2132,27449392,-2,2,19
2133,27452820,-2,1,19
2134,27456252,-2,1,19
2135,27459688,-2,0,19
2136,27463116,-2,-0,19
2137,27466568,-2,-1,19
2138,27470012,-1,-1,19
2139,27473456,-1,-0,19
2140,27476888,-0,-0,19
2141,27480324,0,-0,19
2142,27483744,0,-0,19
2143,27487164,0,0,19
2144,27490552,1,1,20
2145,27493944,2,1,20
2146,27497344,3,2,20
2147,27500756,4,2,21
2148,27504164,4,2,21
2149,27507580,3,3,22
2150,27510996,2,3,22
2151,27514400,1,3,22
2152,27517812,-1,2,22
2153,27524360,-2,2,23
2154,27527800,-2,1,24
2155,27531228,-3,0,24
2156,27534672,-4,-0,25
2157,27538128,-4,-1,26
2158,27541596,-4,-2,27
2159,27545040,-4,-2,28
2160,27548492,-3,-2,29
2161,27551952,-2,-2,30
2162,27555384,-2,-2,31
2163,27558824,-1,-1,32
2164,27562256,0,-1,33
2165,27565672,0,0,34
2166,27569076,1,1,34
2167,27572476,2,2,34
2168,27575892,2,2,34
2169,27579312,3,3,35
2170,27582716,3,4,35
2171,27586136,3,5,34
2172,27589564,4,6,34
2173,27592988,4,7,34
2174,27596408,4,7,33
2175,27599856,4,8,33
2176,27606420,3,9,32
2177,27609852,3,10,32
2178,27613280,2,11,32
2179,27616700,2,11,31
2180,27620128,2,12,31
2181,27623552,1,12,31
2182,27626968,1,13,31
2183,27630408,1,13,31
2184,27633832,2,13,31
2185,27637252,1,13,31
2186,27640684,0,13,30
2187,27644152,-1,14,30
2188,27647612,-2,13,29
2189,27651068,-2,13,29
2190,27654524,-3,13,28
2191,27657992,-3,12,27
2192,27661468,-4,11,27
2193,27664924,-5,11,27
2194,27668392,-6,10,26
2195,27671852,-6,9,26
2196,27675296,-6,8,26
2197,27678748,-6,7,26
2198,27682188,-6,5,26
2199,27688772,-5,3,26
2200,27692212,-5,2,26
2201,27695644,-4,1,26
2202,27699092,-3,-1,26
2203,27702536,-2,-2,26
2204,27705972,-2,-3,26
2205,27709416,-1,-4,27
2206,27712864,0,-5,27
2207,27716272,1,-6,28
2208,27719700,2,-7,28
2209,27723144,3,-7,29
2210,27726572,4,-7,29
2211,27730032,4,-7,29
2212,27733488,5,-7,29
2213,27736940,6,-7,30
2214,27740384,6,-7,29
2215,27743832,5,-6,29
2216,27747284,4,-6,29
2217,27750720,4,-5,29
2218,27754156,3,-5,28
2219,27757604,2,-4,28
2220,27761048,2,-3,28
2221,27764476,0,-3,28
2222,27770920,-3,-2,26
2223,27774380,-4,-2,26
2224,27777828,-6,-2,25
2225,27781296,-7,-2,25
2226,27784744,-9,-2,25
2227,27788208,-10,-3,24
2228,27791684,-10,-4,24
2229,27795156,-10,-4,24
2230,27798640,-10,-5,25
2231,27802112,-10,-6,25
2232,27805604,-9,-7,25
2233,27809072,-8,-8,26
2234,27812532,-7,-8,26
2235,27815992,-6,-9,27
2236,27819452,-5,-9,27
2237,27822916,-4,-9,28
2238,27826376,-2,-8,28
2239,27829820,-1,-8,29
2240,27833272,-1,-7,29
2241,27836736,-2,-6,29
2242,27840196,-3,-6,29
2243,27843660,-4,-5,28
2244,27850184,-6,-4,27
2245,27853660,-8,-4,27
2246,27857132,-9,-4,27
2247,27860588,-11,-4,26
2248,27864088,-12,-5,26
2249,27867560,-12,-5,25
2250,27871020,-13,-6,25
2251,27874500,-14,-8,24
2252,27877956,-14,-9,23
2253,27881440,-14,-10,23
2254,27884936,-14,-12,23
2255,27888420,-13,-13,23
2256,27891924,-12,-15,23
2257,27895424,-11,-16,23
2258,27898928,-13,-17,23
2259,27902436,-12,-18,24
2260,27905944,-11,-18,24
2261,27909468,-11,-18,25
2262,27912980,-11,-19,25
2263,27916504,-11,-19,26
2264,27920008,-12,-19,27
2265,27932020,-14,-17,29
2266,27935536,-15,-16,29
2267,27939064,-16,-15,29
2268,27942588,-17,-14,29
2269,27946124,-18,-12,28
2270,27949628,-19,-11,28
2271,27953140,-19,-9,27
2272,27956612,-18,-7,27
2273,27960072,-18,-5,26
2274,27963536,-17,-4,25
2275,27966992,-15,-2,25
2276,27970464,-13,-1,24
2277,27973920,-10,1,24
2278,27977360,-8,2,24
2279,27980796,-5,3,23
2280,27984216,-2,4,22
2281,27987640,1,5,22
2282,27991060,4,6,21
2283,27994464,7,7,20
2284,27997888,10,7,20
2285,28001320,12,8,19
2286,28004748,13,8,19
2287,28011320,16,8,18
2288,28014764,16,8,17
2289,28018204,15,9,16
2290,28021636,13,9,15
2291,28025080,12,9,15
2292,28028516,11,9,14
2293,28031960,11,9,14
2294,28035392,9,9,14
2295,28038808,8,9,14
2296,28042236,7,8,15
2297,28045652,7,8,15
2298,28049084,8,7,16
2299,28052528,8,7,17
2300,28055964,8,6,18
2301,28059392,9,5,19
2302,28062820,10,4,21
2303,28066256,11,4,22
2304,28069684,13,3,23
2305,28073120,14,3,25
2306,28076560,15,3,26
2307,28079996,17,3,29
2308,28083444,19,3,30
2309,28086872,21,4,32
2310,28090300,22,4,33
2311,28096864,24,5,34
2312,28100308,25,6,35
2313,28103748,24,7,35
2314,28107208,24,8,35
2315,28110652,23,9,34
2316,28114104,21,10,33
2317,28117564,19,11,33
2318,28121024,17,11,32
2319,28124500,15,12,30
2320,28127964,12,12,29
2321,28131428,10,12,28
2322,28134888,8,12,27
2323,28138344,7,12,26
2324,28141796,6,12,25
2325,28145228,5,12,25
2326,28148672,5,11,25
2327,28152112,4,11,25
2328,28155564,5,11,26
2329,28159024,5,10,26
2330,28162460,7,10,27
2331,28165892,8,9,28
2332,28169328,10,9,29
2333,28172752,11,8,30
2334,28179312,13,8,32
2335,28182768,16,7,33
2336,28186196,17,9,32
2337,28189640,18,8,34
2338,28193088,19,8,33
2339,28196512,18,8,33
2340,28199804,17,8,33
2341,28203240,16,8,33
2342,28206664,15,7,33
2343,28210092,15,7,32
2344,28213540,14,7,33
2345,28216956,13,6,33
2346,28220396,11,6,33
2347,28223832,10,5,33
2348,28227260,9,4,33
2349,28230692,8,3,33
2350,28234100,6,3,33
2351,28237484,6,1,33
2352,28240880,5,0,33
2353,28244316,4,-0,33
2354,28247748,3,-0,33
2355,28251188,2,-0,34
2356,28254604,2,-0,34
2357,28258032,2,-0,34
2358,28264604,1,0,34
2359,28268008,1,1,34
2360,28271416,1,1,34
2361,28274816,0,2,34
2362,28278216,0,2,34
2363,28281620,-0,3,34
2364,28285064,-1,3,34
2365,28288476,-1,4,34
2366,28291892,-0,4,34
2367,28295324,-0,5,33
2368,28298752,-0,5,33
2369,28302168,-0,5,33
2370,28305612,-0,5,32
2371,28309024,0,5,32
2372,28312428,1,5,32
2373,28315844,1,5,32
2374,28319252,1,5,32
2375,28322660,0,5,32
2376,28326056,2,5,32
2377,28329460,3,5,32
2378,28332876,3,5,32
2379,28336296,3,5,32
2380,28339716,4,6,33
2381,28343144,4,6,32
2382,28349672,5,6,32
2383,28353092,4,6,32
2384,28356520,3,6,31
2385,28359936,3,5,31
2386,28363356,3,4,30
2387,28366788,3,4,30
2388,28370216,2,3,29
2389,28373616,2,2,29
2390,28377044,1,1,29
2391,28380484,0,-0,29
2392,28383916,-0,-1,29
2393,28387376,-1,-3,29
2394,28390844,-2,-4,30
2395,28394320,-3,-5,30
2396,28397792,-4,-6,31
2397,28401248,-4,-7,32
2398,28404712,-3,-8,33
2399,28408180,-2,-8,34
2400,28411636,-2,-9,35
2401,28415108,-2,-9,36
2402,28418552,-2,-9,37
2403,28422016,-2,-10,38
2404,28425492,-1,-10,38
2405,28431956,0,-11,40
2406,28435400,1,-11,41
2407,28438844,2,-11,42
2408,28442284,2,-11,42
2409,28445740,3,-11,43
2410,28449184,3,-11,43
2411,28452640,2,-11,44
2412,28456092,1,-11,44
2413,28459540,1,-11,44
2414,28463000,-0,-11,44
2415,28466476,-0,-11,44
2416,28469944,-0,-11,44
2417,28473436,-0,-11,45
2418,28476908,-1,-11,44
2419,28480400,-1,-10,44
2420,28483872,-2,-10,44
2421,28487348,-1,-10,43
2422,28490828,-1,-10,43
2423,28494296,-1,-9,43
2424,28497740,-0,-9,44
2425,28501200,0,-8,44
2426,28504628,1,-7,44
2427,28511160,2,-4,45
2428,28514592,2,-2,45
2429,28518024,3,1,45
2430,28521436,3,3,44
2431,28524852,4,6,44
2432,28528280,4,8,44
2433,28531728,5,11,44
2434,28535180,6,12,44
2435,28538644,7,14,43
2436,28542120,8,15,43
2437,28545588,10,16,43
2438,28549044,11,16,43
2439,28552532,13,16,42
2440,28555996,14,16,42
2441,28559476,15,16,42
2442,28562948,15,16,42
2443,28566420,16,15,41
2444,28569896,15,14,41
2445,28573384,15,13,41
2446,28576868,14,11,40
2447,28580336,13,10,40
2448,28583804,11,8,39
2449,28590380,7,5,38
2450,28593816,4,3,37
2451,28597244,2,1,36
2452,28600648,-0,-1,35
2453,28604104,-2,-4,34
2454,28607576,-5,-6,33
2455,28611020,-7,-9,32
2456,28614488,-9,-11,32
2457,28617968,-10,-13,31
2458,28621464,-10,-14,31
2459,28624976,-11,-15,31
2460,28628468,-11,-16,32
2461,28631960,-11,-15,32
2462,28635464,-11,-15,34
2463,28638964,-10,-15,35
2464,28642476,-9,-13,36
2465,28645944,-7,-12,38
2466,28649416,-5,-10,40
2467,28652880,-3,-8,43
2468,28656320,-1,-6,45
2469,28659772,2,-4,48
2470,28663192,4,-2,51
2471,28669736,7,2,55
2472,28673152,7,4,57
2473,28676560,6,6,58
2474,28679952,6,7,58
2475,28683360,5,8,59
2476,28686756,4,9,58
2477,28690160,4,11,58
2478,28693592,3,12,57
2479,28696996,2,12,56
2480,28700416,1,13,54
2481,28703836,0,14,52
2482,28707252,-1,14,50
2483,28710684,-2,15,48
2484,28714140,-3,15,45
2485,28717580,-3,15,43
2486,28721012,-4,14,41
2487,28724452,-4,14,39
2488,28727904,-4,14,37
2489,28731348,-4,13,35
2490,28734792,-5,13,33
2491,28738240,-5,12,32
2492,28741684,-5,11,31
2493,28745140,-6,10,30
2494,28751744,-7,8,27
2495,28755212,-8,7,26
2496,28758656,-8,7,26
2497,28762100,-8,6,25
2498,28765552,-8,5,24
2499,28768992,-7,4,24
2500,28772452,-7,4,23
2501,28775888,-6,3,23
2502,28779336,-5,3,23
2503,28782756,-4,2,22
2504,28786192,-3,2,23
2505,28789616,-1,1,23
2506,28793032,0,0,23
2507,28796420,2,-0,23
2508,28799852,4,-1,23
2509,28803280,6,-1,23
2510,28806700,7,-2,24
2511,28810128,9,-3,24
2512,28813560,11,-3,25
2513,28817020,13,-4,26
2514,28820472,14,-4,26
2515,28823932,15,-4,26
2516,28827400,16,-4,27
2517,28834076,17,-3,27
2518,28837536,16,-3,26
2519,28840988,15,-2,26
2520,28844424,14,-0,25
2521,28847864,13,1,25
2522,28851320,12,2,24
2523,28854740,10,4,24
2524,28858160,9,6,23
2525,28861580,7,7,22
2526,28864980,5,8,22
2527,28868392,4,10,21
2528,28871816,2,11,20
2529,28875244,1,12,20
2530,28878668,-1,13,19
2531,28882124,-3,14,18
2532,28885580,-5,14,17
2533,28889036,-7,14,17
2534,28892488,-9,14,16
2535,28895940,-11,14,16
2536,28899420,-13,13,15
2537,28902892,-14,12,15
2538,28906380,-15,11,15
2539,28909864,-16,10,14
2540,28916552,-18,8,14
2541,28920020,-19,6,14
2542,28923464,-19,5,14
2543,28926908,-19,3,14
2544,28930352,-19,2,14
2545,28933800,-18,1,14
2546,28937244,-18,0,15
2547,28940684,-18,-1,15
2548,28944144,-18,-1,16
2549,28947632,-17,-2,16
2550,28951108,-17,-2,16
2551,28954600,-16,-3,17
2552,28958064,-15,-3,17
2553,28961544,-15,-3,18
2554,28965052,-15,-4,18
2555,28968528,-16,-4,18
2556,28972016,-17,-5,18
2557,28975488,-17,-5,18
2558,28978948,-18,-6,18
2559,28982444,-18,-6,18
2560,28985904,-18,-6,18
2561,28989372,-17,-7,18
2562,28995980,-15,-7,18
2563,28999444,-13,-7,18
2564,29002916,-11,-6,18
2565,29006376,-9,-6,17
2566,29009824,-7,-5,17
2567,29013268,-4,-4,17
2568,29016704,-2,-4,17
2569,29020140,0,-3,17
2570,29023560,2,-2,16
2571,29027004,3,-1,16
2572,29030456,3,-0,15
2573,29033880,3,0,14
2574,29037292,3,1,14
2575,29040704,2,1,13
2576,29044104,2,1,13
2577,29047520,1,1,12
2578,29050924,0,1,11
2579,29054328,-1,0,11
2580,29057752,-1,-1,10
2581,29061180,-2,-2,9
2582,29064592,-2,-3,8
2583,29067888,-2,-4,8
2584,29071336,-2,-4,7
2585,29077836,-0,-5,7
2586,29081244,1,-4,6
2587,29084680,2,-4,6
2588,29088096,3,-4,6
2589,29091500,5,-3,5
2590,29094896,6,-2,5
2591,29098312,7,-1,5
2592,29101696,7,-0,4
2593,29105100,7,0,4
2594,29108492,8,0,4
2595,29111876,9,0,4
2596,29115264,9,0,4
2597,29118664,9,-0,4
2598,29122052,9,-0,4
2599,29125456,9,-0,4
2600,29128864,8,-1,4
2601,29132272,7,-1,3
2602,29135684,5,-1,4
2603,29139100,4,-1,3
2604,29142520,3,-1,3
2605,29145936,2,-0,4
2606,29149336,1,0,4
2607,29152708,1,1,4
2608,29156076,0,2,4
2609,29162480,0,4,4
2610,29165860,0,6,4
2611,29169252,1,7,5
2612,29172640,-0,9,5
2613,29176036,-0,11,5
2614,29179452,-0,12,4
2615,29182856,1,14,4
2616,29186244,1,15,4
2617,29189644,2,16,4
2618,29193060,3,17,4
2619,29196472,4,18,5
2620,29199868,5,18,5
2621,29203288,6,19,5
2622,29206704,7,19,5
2623,29210120,8,19,5
2624,29213536,8,19,5
2625,29216952,9,19,5
2626,29220368,10,18,5
2627,29223812,11,18,5
2628,29227252,12,17,5
2629,29230684,12,16,5
2630,29234116,13,15,5
2631,29237560,13,14,5
2632,29241000,12,13,5
2633,29247580,12,10,4
2634,29251016,12,9,4
2635,29254432,11,7,3
2636,29257848,9,6,3
2637,29261248,8,4,2
2638,29264632,7,2,2
2639,29268020,5,1,1
2640,29271396,4,-0,1
2641,29274796,2,-1,1
2642,29278204,1,-3,0
2643,29281612,0,-3,0
2644,29285044,-1,-4,-0
2645,29288496,-2,-5,-0
2646,29291948,-2,-5,-1
2647,29295404,-2,-6,-1
2648,29298884,-2,-6,-0
2649,29302316,-2,-6,0
2650,29305748,-1,-7,1
2651,29309184,0,-7,2
2652,29312588,2,-7,3
2653,29316020,3,-6,4
2654,29319440,5,-6,5
2655,29322856,6,-5,6
2656,29326280,8,-5,8
2657,29332844,11,-3,9
2658,29336288,12,-2,10
2659,29339752,12,-1,10
2660,29343200,12,-0,11
2661,29346656,12,1,11
2662,29350100,12,2,11
2663,29353532,12,3,10
2664,29356972,11,4,10
2665,29360404,11,5,9
2666,29363836,10,6,9
2667,29367256,9,7,8
2668,29370676,8,7,7
2669,29374100,8,8,6
2670,29377520,7,8,5
2671,29380932,6,9,4
2672,29384344,5,9,3
2673,29387736,5,9,2
2674,29391148,4,9,1
2675,29394560,4,8,1
2676,29397960,4,8,1
2677,29401360,4,7,0
2678,29404756,4,6,1
2679,29408156,4,5,1
2680,29411548,4,3,1
2681,29414928,4,2,1
2682,29421464,5,-1,2
2683,29424876,5,-3,3
2684,29428280,5,-4,3
2685,29431708,5,-6,4
2686,29435128,5,-7,5
2687,29438536,6,-8,6
2688,29441964,6,-9,6
2689,29445380,6,-9,7
2690,29448800,6,-10,7
2691,29452228,6,-10,7
2692,29455688,6,-10,8
2693,29459116,6,-9,8
2694,29462548,5,-9,8
2695,29465960,4,-9,8
2696,29469380,4,-8,9
2697,29472808,3,-7,9
2698,29476204,2,-6,9
2699,29479604,1,-6,9
2700,29483016,-0,-5,9
2701,29486424,-1,-5,9
2702,29489860,-3,-4,9
2703,29493312,-4,-4,8
2704,29496736,-5,-4,8
2705,29500164,-6,-4,8
2706,29506736,-6,-5,8
2707,29510160,-6,-5,8
2708,29513592,-6,-6,7
2709,29517020,-6,-6,7
2710,29520460,-6,-7,7
2711,29523900,-6,-8,7
2712,29527332,-6,-8,6
2713,29530760,-7,-9,6
2714,29534204,-7,-10,6
2715,29537664,-8,-11,6
2716,29541116,-8,-11,6
2717,29544584,-8,-12,6
2718,29548048,-9,-12,6
2719,29551508,-10,-12,6
2720,29554988,-11,-13,6
2721,29558464,-12,-13,6
2722,29561936,-12,-13,7
2723,29565412,-12,-13,7
2724,29568892,-12,-13,8
2725,29572388,-11,-13,9
2726,29575876,-11,-12,10
2727,29579412,-10,-12,11
2728,29586056,-9,-12,13
2729,29589560,-8,-11,14
2730,29593032,-7,-11,15
2731,29596528,-6,-11,17
2732,29600016,-5,-10,18
2733,29603500,-4,-10,19
2734,29607012,-3,-10,19
2735,29610488,-3,-10,20
2736,29614008,-3,-10,20
2737,29617500,-3,-10,21
2738,29621000,-2,-9,21
2739,29624476,-2,-9,21
2740,29627912,-2,-9,21
2741,29631372,-2,-8,21
2742,29634832,-2,-8,21
2743,29638280,-2,-7,20
2744,29641760,-3,-6,20
2745,29645232,-3,-6,19
2746,29648688,-4,-6,18
2747,29652156,-5,-6,17
2748,29655608,-5,-7,17
2749,29659064,-5,-7,16
2750,29665672,-6,-8,15
2751,29669128,-6,-9,15
2752,29672604,-5,-10,15
